name,add,lon,lat
DA CLINIC @ BISHAN,BLK 501 BISHAN STREET 11 #01-374 Singapore 570501,103.849097,1.348388
SINGHEALTH POLYCLINICS - TAMPINES,1 TAMPINES STREET 41 TAMPINES POLYCLINIC Singapore 529203,103.946039,1.357257
1 MEDICAL TECK GHEE,BLK 410 ANG MO KIO AVENUE 10 TECK GHEE SQUARE #01-837 Singapore 560410,103.8544919,1.36282
115 EASTPOINT CLINIC & SURGERY,BLK 115 BEDOK NORTH RD #01-301 Singapore 460115,103.93646,1.331422
18 CLINIC,BLK 101 TOWNER ROAD #01-228 Singapore 322101,103.861129,1.319673
"1AESTHETICS, MEDICAL & SURGERY",8 EU TONG SEN STREET THE CENTRAL #14-90 Singapore 059818,103.846784,1.288529
326 AVENUE 3 CLINIC,BLK 326 SERANGOON AVE 3 #01-382 Singapore 550326,103.86899,1.3503829
338 FAMILY CLINIC,BLK 338 ANG MO KIO AVE 1 #01-1615 Singapore 560338,103.8487619,1.363639
57 MEDICAL CLINIC (GEYLANG BAHRU),BLK 57 GEYLANG BAHRU #01-3505 Singapore 330057,103.869896,1.322958
8 MEDICAL AESTHETIC CLINIC,51 CUPPAGE ROAD #01-03 Singapore 229469,103.840585,1.302839
8 MEDICAL AESTHETIC CLINIC,1 TAMPINES CENTRAL 5 CPF TAMPINES BUILDING #03-02 Singapore 529508,103.943696,1.352954
81 FAMILY CLINIC,BLK 86 MARINE PARADE CENTRAL #01-670 Singapore 440086,103.906681,1.301492
818 FAMILY CLINIC AND SURGERY,818 WOODLANDS ST 82 #01-421 Singapore 730818,103.790054,1.441691
888 PLAZA FAMILY CLINIC,888 WOODLANDS DRIVE 50 888 PLAZA #01-739 Singapore 730888,103.79527,1.437703
A & A CLINIC,BLK 570B WOODLANDS AVENUE 1 #01-07 Singapore 732570,103.790837,1.430924
A LIFE CLINIC PTE LTD,10 SINARAN DRIVE NOVENA MEDICAL CENTER #09-21 Singapore 307506,103.844476,1.321061
A MEDICAL CLINIC,BLK 1 EVERTON PARK EVERTON PARK #01-27 Singapore 081001,103.8400039,1.277421
A&M MEDICAL CENTRE,190 CLEMENCEAU AVENUE SINGAPORE SHOPPING CENTRE #04-17 Singapore 239924,103.8441579,1.298146
A+FFORDABLE CLINIC (AMK AVE 10),BLK 449 ANG MO KIO AVENUE 10 #01-1715 Singapore 560449,103.855993,1.367823
A+FFORDABLE CLINIC (HOUGANG),BLK 681 HOUGANG AVENUE 8 #01-829 Singapore 530681,103.886822,1.373235
A.M AESTHETICS,BLK 500 LORONG 6 TOA PAYOH #B1-30 Singapore 310500,103.847064,1.333005
A.M AESTHETICS,3155 COMMONWEALTH AVENUE WEST THE CLEMENTI MALL #04-50 Singapore 129588,103.7643563,1.3150108
A.M. AESTHETICS,311 NEW UPPER CHANGI ROAD BEDOK MALL #B1-18 Singapore 467360,103.9296683,1.3245781
A.M.AESTHETICS,"21 CHOA CHU KANG AVENUE 4 LOT ONE, SHOPPERS' MALL #02-26 Singapore 689812",103.745046,1.384848
A1 MEDICAL CLINIC,BLK 418 BEDOK NORTH AVENUE 2 LINEAR GREEN @ BEDOK #01-63 Singapore 460418,103.92989,1.328627
ABLE MEDICAL,BLK 201D TAMPINES STREET 21 #01-1129 Singapore 524201,103.953629,1.352255
ACACIA MEDICAL CLINIC,"180 DEPOT ROAD INTERLACE, THE #01-07 Singapore 109684",103.803049,1.28199
ACCESS MEDICAL (CIRCUIT ROAD),BLK 88 CIRCUIT ROAD #01-965 Singapore 370088,103.88585,1.323564
ACCESS MEDICAL (EAST COAST),18 BEDOK SOUTH ROAD #01-69 Singapore 460018,103.934572,1.320332
ACCESS MEDICAL (REDHILL CLOSE),86 REDHILL CLOSE #01-600 Singapore 150086,103.8187,1.286943
ACCESS MEDICAL (TOA PAYOH),BLK 66 LORONG 4 TOA PAYOH #01-315/317 Singapore 310066,103.85174,1.335012
ACCESS MEDICAL (WHAMPOA),87 WHAMPOA DRIVE #01-869 Singapore 320087,103.855666,1.323282
ACCORD MEDICAL CLINIC,BLK 325 UBI AVENUE 1 #01-701 Singapore 400325,103.903984,1.3276889
ACMS MEDICAL CLINIC,1 GRANGE ROAD ORCHARD BUILDING #06-06 Singapore 239693,103.837238,1.30142
ACUMED MEDICAL GROUP,16 COLLYER QUAY INCOME AT RAFFLES #02-03 Singapore 049318,103.852536,1.284184
ACUMED MEDICAL GROUP,1 JURONG WEST CENTRAL 2 JURONG POINT SHOPPING CENTRE #B1A-19E Singapore 648886,103.706464,1.339874
ACUMED MEDICAL GROUP,BLK 38 TEBAN GARDENS ROAD #01-318/319 Singapore 600038,103.742848,1.321156
ACUMED MEDICAL GROUP,BLK 111 WOODLANDS STREET 13 #01-78 Singapore 730111,103.78198,1.437911
ACUMED MEDICAL GROUP,BLK 64 YUNG KUANG ROAD #01-107/111 Singapore 610064,103.722449,1.332381
ACUMED MEDICAL GROUP,71 PIONEER ROAD TUAS AMENITY CENTRE #01-06 Singapore 639591,103.651887,1.316869
ACUMED MEDICAL GROUP,301 BOON LAY WAY BOON LAY MRT STATION #01-18/19 Singapore 649846,103.706071,1.338717
ACUMED MEDICAL GROUP,BLK 214 Bedok North Street 1 #01-165 Singapore 460214,103.93243,1.326024
ACUMED MEDICAL GROUP,1 JOO KOON CIRCLE FAIRPRICE HUB #01-23 Singapore 629117,103.6784659,1.3269112
ACUMED MEDICAL GROUP,128 TUAS SOUTH AVENUE 3 JTC BIOMED ONE @ TUAS BIOMEDICAL PARK #01-03 Singapore 637370,103.6267754,1.2888927
ACUMED MEDICAL GROUP,BLK 215C COMPASSVALE DRIVE #01-02 Singapore 543215,103.8929155,1.3898391
ACUMED MEDICAL GROUP,14 TUAS AVENUE 1 JTC Space @ Tuas #01-05 Singapore 639499,103.660574,1.3234379
ADIDAH FAMILY CLINIC & SURGERY,BLK 821 TAMPINES ST 81 #01-210 Singapore 520821,103.934491,1.348648
ADMIRALTY FAMILY MEDICAL CLINIC,BLK 693 WOODLANDS AVENUE 6 #01-08 Singapore 730693,103.8037955,1.4379932
ADVANCE CLINIC & SURGERY PTE LTD,301 UBI AVE 1 #01-269 Singapore 400301,103.902125,1.330744
AE MEDICAL CLINIC,BLK 467B FERNVALE LINK #01-529 Singapore 792467,103.8779177,1.3974619
AEON MEDICAL AND AESTHETIC CENTRE,"9 SCOTTS ROAD SCOTTS MEDICAL CENTER, PACIFIC PLAZA #06-01/02/03 Singapore 228210",103.831788,1.306595
AERAS MEDICAL AESTHETIC CLINIC,218 ORCHARD ROAD ORCHARD GATEWAY @ EMERALD #05-01 Singapore 238851,103.838784,1.301615
AESTEEM AESTHETIC CLINIC,10 SINARAN DRIVE SQUARE 2 #11-23 Singapore 307506,103.844476,1.321061
AESTHETIC & DENTAL SURGERY,6 RAFFLES BOULEVARD MARINA SQUARE #B1-10 Singapore 039594,103.857422,1.290989
AESTHETIC WORKS MEDICAL ASSOCIATES,80 Marine Parade Road Parkway Parade #05-06/07 Singapore 449269,103.905281,1.301072
AESTHETICS PLUS MEDICAL CLINIC,57 CIRCULAR ROAD #02-01 Singapore 049412,103.849254,1.286025
AESTHETICS@HEALTHSPRINGS,BLK 524A JELAPANG ROAD GREENRIDGE SHOPPING CENTRE #02-01/02 Singapore 671524,103.766361,1.384839
AFFINITY MEDICAL CLINIC,BLK 253 SERANGOON CENTRAL DRIVE #01-187 Singapore 550253,103.870912,1.353708
AFFORD MEDICAL,25 SPRINGSIDE GREEN THE BROOKS II #01-09 Singapore 786015,103.8195465,1.4048406
AFPD MEDICAL CLINIC,10 TAMPINES INDUSTRIAL AVENUE 3 Singapore 528798,103.929698,1.360488
AGAPE CLINIC,BLK 222 Bishan St. 23 #B1-169 Singapore 570222,103.848068,1.358071
AGELESS MEDICAL,501 ORCHARD ROAD WHEELOCK PLACE #04-10 Singapore 238880,103.830326,1.304598
AIA ALEXANDRA CLINIC,371 ALEXANDRA ROAD AIA ALEXANDRA #01-03 Singapore 159963,103.802355,1.284818
AIDAN MEDICAL CLINIC,BLK 539 BEDOK NORTH STREET 3 #01-623 Singapore 460539,103.925109,1.331305
ALAXIS MEDICAL & AESTHETIC SURGERY,360 Orchard Road International Building #04-02 Singapore 238869,103.830876,1.306348
ALAXIS MEDICAL & AESTHETIC SURGERY,360 ORCHARD ROAD INTERNATIONAL BUILDING #04-05 Singapore 238869,103.830876,1.306348
ALEXANDRA FAMILY CLINIC & SURGERY,BLK 57 DAWSON ROAD #02-02 Singapore 142057,103.810934,1.292802
ALL DERMA MEDICAL CLINIC,360 ORCHARD ROAD INTERNATIONAL BUILDING #03-14 Singapore 238869,103.830876,1.306348
ALLHEALTH FAMILY CLINIC,BLK 872C TAMPINES STREET 86 #01-01 Singapore 523872,103.9315626,1.3550718
AMARIS B CLINIC,140 ARAB STREET Singapore 199827,103.8583,1.302196
AMITY MEDICAL CLINIC & DENTAL SURGERY,BLK 371 BT BATOK ST 31 #01-314 Singapore 650371,103.750631,1.359581
AMK FAMILY CLINIC PTE LTD,51 ANG MO KIO AVE 3 NO 51 @ AMK #01-01 Singapore 569922,103.847207,1.369149
AMPM FAMILY CLINIC & SURGERY PTE. LTD.,BLK 123 TOA PAYOH LOR 1 #01-521 Singapore 310123,103.845388,1.338662
ANDERSON MEDICAL CENTRE,BLK 283 BISHAN ST 22 #01-173 Singapore 570283,103.844074,1.358924
ANG MO KIO FAMILY MEDICINE CLINIC,4190 ANG MO KIO AVENUE 6 BROADWAY PLAZA #03-01 Singapore 569841,103.845583,1.372198
ANG MO KIO MEDICAL CENTRE,BLK 157 ANG MO KIO AVE 4 #01-558 Singapore 560157,103.839382,1.37526
ANSAR CLINIC,BLK 138 Tampines Street 11 #01-126 Singapore 521138,103.945616,1.345799
ANSARI FAMILY CLINIC & SURGERY,78 LORONG 25A GEYLANG ROAD Singapore 388259,103.883347,1.315918
ANTEH DISPENSARY PTE LTD,1 LORONG 22 GEYLANG GRANDVIEW SUITES #01-02 Singapore 398664,103.8823986,1.3126979
APAX MEDICAL & AESTHETICS CLINIC,1 WOODLANDS ROAD Junction 10 #02-11 Singapore 677899,103.760383,1.37978
APAX MEDICAL & AESTHETICS CLINIC,BLK 212 HOUGANG STREET 21 #01-313 Singapore 530212,103.888103,1.359509
APEX CLINIC & SURGERY,BLK 844 YISHUN ST 81 #01-162 Singapore 760844,103.835288,1.415635
APEX CLINIC & SURGERY,BLK 306 WOODLANDS ST 31 #01-39 Singapore 730306,103.774809,1.429942
APEX MEDICAL CENTRE (JURONG) PTE LTD,BLK 960 JURONG WEST ST 92 #01-172 Singapore 640960,103.691314,1.341406
APOLLO MEDICAL CENTRE,BLK 668 CHANDER ROAD #01-24 Singapore 210668,103.851086,1.307745
APPLE WELLNESS CENTER,7 ANG MO KIO STREET 64 #01-00 Singapore 569086,103.84481,1.388692
APPLE WELLNESS CENTER MEDICAL SERVICES,2 FUSIONOPOLIS WAY INNOVIS BUILDING LEVEL 2 Singapore 138634,103.788557,1.298775
AR-RAUDHAH MEDICAL CLINIC AND SURGERY PTE LTD,BLK 372 BUKIT BATOK STREET 31 #01-386 Singapore 650372,103.751101,1.359015
ARCADIA CLINIC,2 PANDAN VALLEY #01-211 Singapore 597626,103.778992,1.320431
ARIS MEDICAL CLINIC,989 BUKIT TIMAH ROAD MAPLEWOODS Singapore 589629,103.784324,1.333442
ARIUM CLINIC,583 ORCHARD ROAD FORUM #02-26/27 Singapore 238884,103.828639,1.306339
ARK MEDICAL CENTRE,10 SINARAN DRIVE SQUARE 2 #09-20 Singapore 307506,103.844476,1.321061
ASPEN CLINIC,BLK 283 BISHAN STREET 22 #01-185 Singapore 570283,103.844074,1.358924
ASSOCIATE DISPENSARIES,BLK 94 TOA PAYOH LOR 4 #01-20 Singapore 310094,103.849803,1.338881
ASSURANCE MEDICARE CLINIC AND SURGERY,370 TANJONG KATONG ROAD Singapore 437127,103.896786,1.3029869
ASTIQUE THE AESTHETIC CLINIC,350 ORCHARD ROAD SHAW HOUSE #08-00 Singapore 238868,103.831573,1.305487
ASTUTE MEDICAL AESTHETICS & LASER CLINIC,252 TEMBELING ROAD TEMBELING CENTRE #01-08 Singapore 423731,103.905339,1.30646
ASTUTE MEDICAL CLINIC PTE LTD,18 CROSS STREET CHINA SQUARE CENTRAL #01-112 Singapore 048423,103.846868,1.283384
ATLAS MEDICAL ~ DERMA-REGEN CLINIC BY DR SM YUEN,391B ORCHARD ROAD NGEE ANN CITY TOWER B #24-08/09 Singapore 238874,103.834289,1.302707
ATLAS PACIFIC MEDICAL,428 RIVER VALLEY ROAD LOFT @ NATHAN #01-10 Singapore 248327,103.828001,1.294531
ATRIO FAMILY CLINIC,BLK 291 YISHUN STREET 22 #01-349 Singapore 760291,103.8363959,1.436545
ATRIO FAMILY CLINIC (AMK) PTE. LTD.,BLK 532 ANG MO KIO AVENUE 10 CHENG SAN CENTRE #01-2461 Singapore 560532,103.854658,1.3737839
AVENUE+CO MEDICAL AESTHETICS,3 TEMASEK BOULEVARD SUNTEC CITY MALL #02-319/320 Singapore 038983,103.858967,1.295968
AYE METTA CLINIC PTE. LTD.,111 NORTH BRIDGE ROAD PENINSULA PLAZA #04-36A Singapore 179098,103.850442,1.292307
B S CHEW CLINIC,BLK 252 JURONG EAST ST 24 #01-109 Singapore 600252,103.738456,1.343415
B T GOH FAMILY CLINIC & SURGERY,BLK 194 KIM KEAT AVE #01-406 Singapore 310194,103.858203,1.330951
BA CLINIC,10 TAMPINES CENTRAL 1 TAMPINES ONE #04-35A Singapore 529536,103.945206,1.354396
BALKIS FAMILY CLINIC,BLK 631 BEDOK RESERVOIR RD #01-968 Singapore 470631,103.914939,1.332953
BALMORAL LASER & MEDICAL AESTHETICS,271 Bukit Timah Road Balmoral Plaza #02-12A Singapore 259708,103.835472,1.316498
BAN KOK CLINIC & SURGERY,BLK 146 POTONG PASIR AVE 1 #01-141 Singapore 350146,103.867199,1.332062
BANYAN CLINIC @ JW,BLK 502 JURONG WEST AVENUE 1 #01-817 Singapore 640502,103.718008,1.350353
BANYAN CLINIC PTE LTD.,BLK 768 Woodlands Avenue 6 Woodlands Mart #02-04 Singapore 730768,103.798159,1.445962
BEDOK CENTRAL CLINIC,BLK 214 BEDOK NORTH STREET 1 #01-161 Singapore 460214,103.93243,1.326024
BEDOK CLINIC & SURGERY(FAMILY MEDICAL CENTRE),BLK 17 BEDOK SOUTH RD #01-565 Singapore 460017,103.935554,1.320175
BEDOK DAY & NIGHT CLINIC,BLK 418 BEDOK NORTH AVENUE 2 #01-85 Singapore 460418,103.92989,1.328627
BEDOK DIVISION CLINIC,30 BEDOK NORTH ROAD Singapore 469676,103.937136,1.3326499
BEDOK LIFE CLINIC,123 BEDOK NORTH ST 2 #01-160 Singapore 460123,103.937359,1.329592
BEDOK MEDICAL CENTRE,BLK 18 BEDOK SOUTH RD #01-57 Singapore 460018,103.934572,1.320332
BEO CRESCENT CLINIC & SURGERY,BLK 40 Beo Crescent #01-02 Singapore 160040,103.827603,1.288999
BETHESDA MEDICAL CENTRE,3 TEMASEK BOULEVARD SUNTEC CITY MALL #03-330 Singapore 038983,103.858967,1.295968
BIO AESTHETIC LASER CLINIC,390 ORCHARD ROAD PALAIS RENAISSANCE #03-01 Singapore 238871,103.8295629,1.30661
BISHAN GRACE CLINIC,BLK 150 BISHAN STREET 11 #01-151 Singapore 570150,103.855269,1.344518
BK MEDICAL GROUP AESTHETIC CLINIC,100 TRAS STREET 100 AM #04-12 Singapore 079027,103.843549,1.274929
BL MEDICAL ASSOCIATES,2 SCIENCE PARK DRIVE ASCENT #01-10 Singapore 118222,103.785103,1.291094
BLESS MEDICAL CENTRE PTE LTD,BLK 221 BOON LAY PLACE BOON LAY SHOPPING CENTRE #01-108 Singapore 640221,103.712422,1.346517
BLISSCARE MEDICAL,10 SINARAN DRIVE NOVENA MEDICAL CENTRE #10-14 Singapore 307506,103.844476,1.321061
BLISSCARE MEDICAL,10 SINARAN DRIVE Novena Medical Centre #10-30 Singapore 307506,103.844476,1.321061
BOK FAMILY CLINIC PTE LTD,BLK 117 BEDOK RESERVOIR ROAD #01-58 Singapore 470117,103.908646,1.331381
BOON KENG CLINIC & SURGERY,BLK 11 UPPER BOON KENG RD #01-919 Singapore 380011,103.870795,1.314321
BOON LAY CENTRAL CLINIC,BLK 221 BOON LAY PLACE BOON LAY SHOPPING CENTRE #01-242 Singapore 640221,103.712422,1.346517
BOON LAY CLINIC & SURGERY,BLK 221 BOON LAY PLACE #01-240/244 Singapore 640221,103.712422,1.346517
BOON LAY CORPORATION CLINIC,BLK 350 JURONG EAST AVENUE 1 #01-1225 Singapore 600350,103.731233,1.344093
BORIS VALERIE,111 SOMERSET ROAD TRIPLEONE SOMERSET #03-15 to 18 Singapore 238164,103.837638,1.300513
BOSTON MEDICAL,BLK 119 ALJUNIED AVENUE 2 #01-72 Singapore 380119,103.886657,1.31953
BOSTON MEDICAL,3A INTERNATIONAL BUSINESS PARK ICON@IBP #01-08 Singapore 609935,103.749234,1.3275999
BOYS' HOME MEDICAL CLINIC II,32 JURONG WEST STREET 24 Singapore 649697,103.707658,1.349812
BRADDELL MEDICAL CLINIC,BLK 124 LORONG 1 TOA PAYOH #01-489 Singapore 310124,103.844472,1.338664
BUKIT BATOK MEDICAL CLINIC,207 BUKIT BATOK ST 21 #01-114 Singapore 650207,103.749347,1.3462209
BUKIT BATOK POLYCLINIC,50 BUKIT BATOK WEST AVENUE 3 Singapore 659164,103.747924,1.351972
BUKIT BATOK WEST CLINIC,BLK 323 BUKIT BATOK ST 33 #01-106 Singapore 650323,103.748201,1.361466
BUKIT MERAH CENTRAL MEDICAL CENTRE PTE LTD,BLK 165 BT MERAH CENTRAL #03-3683 Singapore 150165,103.816199,1.28344
BUKIT TIMAH CLINIC,621A BUKIT TIMAH ROAD Singapore 269731,103.809191,1.3245769
BUKIT TIMAH FAMILY CLINIC & SURGERY,897 BUKIT TIMAH ROAD Singapore 589617,103.790179,1.333394
BUKIT TIMAH NAM SANG CLINIC,80 JLN JURONG KECHIL Singapore 598591,103.773134,1.340362
C & K FAMILY CLINIC PTE LTD,108 UPPER EAST COAST ROAD Singapore 455297,103.92879,1.313281
C H TAN MEDICAL CLINIC & DENTAL SURGERY,BLK 177 BT BATOK WEST AVE 8 #01-259 Singapore 650177,103.74156,1.346365
C K TAN FAMILY CLINIC & SURGERY PTE LTD,BLK 125 TOA PAYOH LOR 1 #01-537 Singapore 310125,103.845538,1.338334
C Y KOK CLINIC & SURGERY,BLK 157 ANG MO KIO AVE 4 #01-562 Singapore 560157,103.839382,1.37526
C.M.C. WONG BINJAI CLINIC,15 BINJAI PARK Singapore 589824,103.787017,1.336072
C3 FAMILY CLINIC @ALJUNIED CRESCENT,BLK 95 ALJUNIED CRESCENT MACPHERSON VIEW #01-509 Singapore 380095,103.886362,1.321563
CALROSE MEDICAL FAMILY CLINIC,BLK 231A SUMANG LANE MATILDA COURT #01-05 Singapore 821231,103.8909577,1.4023353
CALVIN CHAN AESTHETIC & LASER CLINIC,501 Orchard Road Wheelock Place #05-11 Singapore 238880,103.830326,1.304598
CAMBRIDGE CLINIC,BLK 250 TAMPINES ST 21 #01-510 Singapore 520250,103.948177,1.352326
CAMRY MEDICAL CENTRE,BLK 95 Toa Payoh Lorong 4 #01-66 Singapore 310095,103.848997,1.338873
CANBERRA CARE MEDICAL CLINIC,BLK 120 CANBERRA CRESCENT MULTI STOREY CAR PARK #01-04 Singapore 750120,103.8313172,1.4455753
CANTERBURY MEDICAL CENTRE,328 CLEMENTI AVENUE 2 #01-202 Singapore 120328,103.766986,1.313511
CAPITAL MEDICAL CENTRE,111 NORTH BRIDGE ROAD PENINSULA PLAZA #05-18 Singapore 179098,103.850442,1.292307
CARE FAMILY CLINIC,BLK 663 BUFFALO ROAD #01-12 Singapore 210663,103.85087300000001,1.305672
CARE MEDICAL PTE LTD,BLK 683 HOUGANG AVE 8 #01-931 Singapore 530683,103.886822,1.373235
CARELINK FAMILY CLINIC,400 BALESTIER ROAD BALESTIER PLAZA #01-09/10 Singapore 329802,103.850723,1.325601
CARING COMMUNITY CLINIC,90 RACE COURSE ROAD Singapore 218577,103.851414,1.309035
CARING FAMILY CLINIC,BLK 501 JURONG WEST STREET 51 #01-271 Singapore 640501,103.719126,1.350092
CARITAS CLINIC,BLK 304 UBI AVE 1 #01-127 Singapore 400304,103.901257,1.329443
CASHEW MEDICAL & SURGERY,BLK 445 FAJAR RD FAJAR SHOPPING CENTRE #02-522 Singapore 670445,103.770558,1.383802
CASSIA CLINIC & SURGERY,34 CASSIA CRESCENT #01-76 Singapore 390034,103.884447,1.309599
CCK FAMILY CLINIC,BLK 304 CHOA CHU KANG AVE 4 #01-653 Singapore 680304,103.743096,1.38426
CECILIA FAMILY CLINIC & SURGERY,BLK 484 TAMPINES ST 43 #01-224 Singapore 520484,103.952521,1.361307
CELEVENUS WELLNESS AND AESTHETIC CLINIC,391B ORCHARD ROAD NGEE ANN CITY TOWER B #16-03/04 Singapore 238874,103.834289,1.302707
CENTRAL 24-HR CLINIC ( PIONEER NORTH ),BLK 959 JURONG WEST STREET 92 #01-160 Singapore 640959,103.690502,1.341514
CENTRAL 24-HR CLINIC (BEDOK),219 BEDOK CENTRAL MULTI STOREY CAR PARK #01-124 Singapore 460219,103.932968,1.324961
CENTRAL 24-HR CLINIC (CLEMENTI),BLK 450 Clementi Ave 3 #01-291 Singapore 120450,103.765368,1.313578
CENTRAL 24-HR CLINIC (HOUGANG),681 HOUGANG AVE 8 #01-831 Singapore 530681,103.886822,1.373235
CENTRAL 24-HR CLINIC (MARSILING),BLK 303 WOODLANDS STREET 31 #01-185 Singapore 730303,103.7740029,1.430999
CENTRAL 24-HR CLINIC (PASIR RIS),BLK 446 PASIR RIS DRIVE 6 #01-122 Singapore 510446,103.957523,1.3703669
CENTRAL 24-HR CLINIC (TAMPINES),BLK 201D TAMPINES STREET 21 #01-1151 Singapore 524201,103.953629,1.352255
CENTRAL 24-HR CLINIC (WOODLANDS),BLK 768 WOODLANDS AVENUE 6 WOODLANDS MART #02-06A Singapore 730768,103.798159,1.445962
CENTRAL 24-HR CLINIC (YISHUN),701A YISHUN AVE 5 #01-04 Singapore 761701,103.827832,1.4299519
CENTRAL 24HR CLINIC (JURONG WEST),BLK 492 JURONG WEST STREET 41 #01-54 Singapore 640492,103.724268,1.350203
CENTRAL DIVISION CLINIC,391 NEW BRIDGE ROAD POLICE CANTONMENT COMPLEX Singapore 088762,103.8394409,1.278478
CENTRAL MEDICAL GROUP PTE LTD,BLK 11 JALAN BUKIT MERAH #01-4442 Singapore 150011,103.808908,1.286601
CENTRAL [ CLINIC + SURGERY ] MARINE PARADE,BLK 81 MARINE PARADE CENTRAL #01-630 Singapore 440081,103.907111,1.30286
CHAI CHEE CLINIC & SURGERY,BLK 25A CHAI CHEE RD #01-453 Singapore 461025,103.924153,1.323408
CHAIM CLINIC,BLK 111 Toa Payoh Lor 1 #01-350 Singapore 310111,103.845575,1.341269
CHAN CLINIC & SURGERY,BLK 153 BT BATOK ST 11 #01-288 Singapore 650153,103.744289,1.347569
CHAN FAMILY CLINIC,865 MOUNTBATTEN ROAD KATONG SHOPPING CENTRE #02-81H Singapore 437844,103.901182,1.303746
CHANG CLINIC,1 JLN ANAK BUKIT BUKIT TIMAH PLAZA #B1-08/09/10 Singapore 588996,103.778958,1.339001
CHANG CLINIC & SURGERY,BLK 7 EVERTON PARK #01-21 Singapore 080007,103.839344,1.277088
CHANGI CLINIC,BLK 848 Sims Avenue Eunosville #01-734 Singapore 400848,103.901376,1.317213
CHANLAI HEALTHCARE CLINIC,BLK 604 YISHUN ST 61 #01-325 Singapore 760604,103.835421,1.4217979
CHARIS CLINIC & SURGERY,BLK 164 TAMPINES ST 12 #01-295 Singapore 521164,103.945939,1.349683
CHEE HWAN KOG CHARITY CLINIC,BLK 67 ANCHORVALE LINK Singapore 545071,103.890284,1.393858
CHEN & LOW FAMILY DOCTORS,BLK 548 WOODLANDS DR 44 #02-22 Singapore 730548,103.79392,1.430554
CHEN FAMILY CLINIC,BLK 153 SERANGOON NORTH AVE 1 #01-490 Singapore 550153,103.872411,1.369972
CHENG CLINIC,BLK 447 ANG MO KIO AVE 10 #01-1677 Singapore 560447,103.855892,1.367554
CHEONG FAMILY CLINIC PTE LTD,BLK 45 OWEN RD #01-293 Singapore 210045,103.850834,1.315617
CHERN MEDICAL CLINIC,BLK 138 TAMPINES ST 11 #01-112 Singapore 521138,103.945616,1.345799
CHIA & LEE MEDICAL & DENTAL CLINIC,BLK 802 TAMPINES AVE 4 #01-15 Singapore 520802,103.938108,1.346069
CHIA CLINIC AND SURGERY,27 FOCH ROAD HOA NAM BUILDING #01-04 Singapore 209264,103.85994,1.3123419
CHIEW CLINIC,2 KOVAN ROAD SIMON PLAZA #01-09 Singapore 548008,103.884927,1.36194
CHIN CHOO CLINIC,BLK 35 CIRCUIT ROAD #01-430 Singapore 370035,103.886,1.329166
CHIN LEONG CLINIC,517 WEST COAST ROAD #01-555 Singapore 120517,103.76011,1.307477
CHIN MEDICAL CLINIC,524A JELAPANG ROAD GREENRIDGE SHOPPING CENTRE #02-02A Singapore 671524,103.766361,1.384839
CHIRON MEDICAL CLINIC,BLK 3 ST. GEORGE'S ROAD ST GEORGE'S WEST GARDENS #01-95 Singapore 320003,103.860954,1.3226850000000001
CHNG CLINIC AND SURGERY,BLK 178 TOA PAYOH CENTRAL #01-236 Singapore 310178,103.849135,1.3332949
CHOA CHU KANG POLYCLINIC,2 TECK WHYE CRESCENT Singapore 688846,103.750669,1.382301
CHOICE CLINIC,BLK 548 WOODLANDS DR 44 VISTA POINT #02-21 Singapore 730548,103.79392,1.430554
CHONG & LIM FAMILY CLINIC,BLK 103 GANGSA ROAD #01-39 Singapore 670103,103.768434,1.378629
CHONG MEDICAL CLINIC,BLK 703 BEDOK RESERVOIR ROAD #01-3500 Singapore 470703,103.919774,1.337138
CHONG'S CLINIC,234 UPPER THOMSON ROAD Singapore 574365,103.8349099,1.353066
CHONG'S MEDICAL CENTRE,190 CLEMENCEAU AVE SINGAPORE SHOPPING CENTRE #01-29/30 Singapore 239924,103.8441579,1.298146
CHOONG'S CLINIC,BLK 480 TAMPINES ST 44 #01-261 Singapore 520480,103.95368,1.361342
CHOONG'S CLINIC,BLK 21 OLD AIRPORT RD #01-97 Singapore 390021,103.884504,1.307519
CHRIST THE KING FREE CLINIC,2221 ANG MO KIO AVENUE 8 CHURCH OF CHRIST THE KING Singapore 569809,103.852295,1.361812
CHUA & PARTNERS FAMILY CLINIC,18 Jalan Membina #02-05 Singapore 164018,103.826718,1.28568
CHUA CLINIC,BLK 678 HOUGANG AVE 8 #01-513 Singapore 530678,103.884068,1.370903
CHUA CLINIC & SURGERY,BLK 769 YISHUN AVE 3 #01-281 Singapore 760769,103.833149,1.42465
CHUA CLINIC & SURGERY,BLK 844 YISHUN ST 81 #01-156 Singapore 760844,103.835288,1.415635
CHUA MEDICAL CENTRE PTE LTD,BLK 248 Simei St 3 #01-134 Singapore 520248,103.953308,1.344085
CHUA MEDICAL CLINIC AND SURGERY PTE. LTD.,BLK 642 BUKIT BATOK CENTRAL #01-52 Singapore 650642,103.751551,1.349032
CHUA MEDICO CLINIC LLP,529 ANG MO KIO AVE 10 #01-2323 Singapore 560529,103.855671,1.372526
CHUAH CLINIC & SURGERY PTE LTD,BLK 113 ALJUNIED AVE 2 #01-19 Singapore 380113,103.886013,1.320532
CHUNG & EE MEDICAL CLINIC,BLK 10 TELOK BLANGAH CRESCENT #01-151 Singapore 090010,103.8197409,1.277725
CHUNGKIAW CLINIC PTE LTD,68 JALAN JURONG KECHIL SUITES AT BUKIT TIMAH #01-01 Singapore 596180,103.7735951,1.3404921
CIRCUIT MEDICAL CLINIC,BLK 36 CIRCUIT ROAD BALAM GARDENS #01-424 Singapore 370036,103.886929,1.328989
CITILIFE FAMILY CLINIC,BLK 215 JURONG EAST ST 21 #01-539 Singapore 600215,103.7384189,1.3400749
CITIZEN FAMILY CLINIC AND SURGERY,BLK 102 YISHUN AVE 5 #01-117 Singapore 760102,103.8288369,1.430859
CITYGP FAMILY CLINIC,BLK 122 BEDOK NORTH STREET 2 #01-106 Singapore 460122,103.937724,1.32897
CITYHEALTH CLINIC & SURGERY,152 Beach Road Gateway East #03-08 Singapore 189721,103.8589609,1.299117
CITYMED HEALTH ASSOCIATES PTE LTD,19 KEPPEL RD JIT POH BUILDING #01-01 Singapore 089058,103.8421539,1.272967
CIVIL DEFENCE ACADEMY COMPLEX MEDICAL CENTRE,91 JALAN BAHAR SCDF JALAN BAHAR CAMP Singapore 649735,103.690822,1.364808
CLARION MEDICAL,202 ANG MO KIO AVENUE 3 ANG MO KIO VIEW #01-1676 Singapore 560202,103.84435,1.368466
CLARION MEDICAL | AESTHETICS,301 UPPER THOMSON ROAD THOMSON PLAZA #03-17 Singapore 574408,103.830935,1.354637
CLEMENTI FAMILY & AESTHETIC CLINIC,BLK 321 CLEMENTI AVENUE 3 #01-14/15 Singapore 129905,103.765083,1.311933
CLEMENTI FAMILY HEALTHPOINT CLINIC & SURGERY,BLK 308 CLEMENTI AVE 4 #01-351 Singapore 120308,103.76687,1.321165
CLEMENTI POLYCLINIC,451 CLEMENTI AVENUE 3 #02-307 Singapore 120451,103.765669,1.312638
CLIFFORD DISPENSARY PTE LTD,50 AIRPORT BOULEVARD DNATA BUILDING #03-50A Singapore 819658,103.986032,1.348601
CLIFFORD DISPENSARY PTE LTD,350 ORCHARD ROAD SHAW HOUSE #15-03 Singapore 238868,103.831573,1.305487
CLIFFORD DISPENSARY PTE LTD,77 ROBINSON ROAD ROBINSON 77 #06-02 Singapore 068896,103.848337,1.277817
CLINIC 10,BLK 644 PASIR RIS DR 10 #01-20 Singapore 510644,103.937669,1.378237
CLINIC @ THE SAIL,2 MARINA BOULEVARD THE SAIL @ MARINA BAY #B1-11/12 Singapore 018987,103.85265,1.280783
CLINIC FARIDAH,BLK 59 NEW UPPER CHANGI ROAD #01-1230 Singapore 461059,103.940685,1.324047
CLINICAL ASSOCIATES MEDICAL CENTRE,137 TECK WHYE LANE #01-313 Singapore 680137,103.75224300000001,1.380057
CLOVER MEDICAL CLINIC PTE LTD,21 CHOA CHU KANG NORTH 6 YEW TEE POINT #01-01 Singapore 689578,103.746546,1.39729
CMY MEDICAL,BLK 37 CHAI CHEE AVENUE #01-295 Singapore 461037,103.926152,1.325543
COMFORT CLINIC & SURGERY,BLK 214 SERANGOON AVE 4 #01-100 Singapore 550214,103.873558,1.357329
COMMUNITY MEDICAL CLINIC,BLK 221 BOON LAY PLACE BOON LAY SHOPPING CENTRE #02-160 Singapore 640221,103.712422,1.346517
COMPASSVALE 297A MEDICAL CLINIC,BLK 297A COMPASSVALE ST #01-36 Singapore 541297,103.900273,1.394859
COMWELL MEDICAL CLINIC,BLK 6 HOUGANG AVENUE 3 #01-80 Singapore 530006,103.893935,1.362767
CORNERSTONE MEDICAL,BLK 29A GHIM MOH LINK #01-03 Singapore 271029,103.7844962,1.3084268
CORONATION MEDICAL CENTRE,587 BUKIT TIMAH ROAD CORONATION PLAZA #02-01 Singapore 269707,103.810236,1.323784
CORPORATION CLINIC (CHOA CHU KANG),BLK 253 Choa Chu Kang Ave 1 #01-21 Singapore 680253,103.744413,1.377542
COSMOPOLITAN CLINIC,25 LORONG TELOK #01-01 Singapore 049037,103.848737,1.286632
COUNTRYSIDE CLINIC AND SURGERY,BLK 106 YISHUN RING RD #01-189 Singapore 760106,103.827353,1.431553
COVE AESTHETIC CLINIC,501 ORCHARD ROAD WHEELOCK PLACE #04-07 Singapore 238880,103.830326,1.304598
COVETTE LASER AESTHETICS CLINIC,50 EAST COAST ROAD ROXY SQUARE #03-19/20 Singapore 428769,103.904048,1.304351
CRESCENT CLINIC & SURGERY,BLK 1A EUNOS CRESCENT #01-2473 Singapore 401001,103.902556,1.321389
CREST FAMILY CLINIC PTE. LTD.,724 WOODLANDS AVE 6 #01-502 Singapore 730724,103.79864,1.444466
CROSS STREET MEDICAL CLINIC,531 UPPER CROSS STREET HONG LIM COMPLEX #01-35 Singapore 050531,103.845699,1.2841959
CROSSROADS FAMILY CLINIC,BLK 601B TAMPINES AVENUE 9 TAMPINES GREENRIDGES #01-10 Singapore 522601,103.9370231,1.3605525
CSK® EAST LASER AESTHETIC CLINIC,5 TAMPINES CENTRAL 6 TELEPARK #01-03 Singapore 529482,103.942273,1.353247
CSK® AESTHETIC & WELLNESS CLINIC YISHUN,1 NORTHPOINT DRIVE NORTHPOINT CITY #01-149 Singapore 768019,103.8365628,1.4285262
CSK® LASER AESTHETIC CLINIC (WEST),3 Gateway Drive Westgate Mall #03-12 Singapore 608532,103.7427983,1.3345328
CSK® NOVENA LASER AESTHETIC CLINIC,10 SINARAN DRIVE SQUARE 2 #10-25/26 Singapore 307506,103.844476,1.321061
CSK® PREMIER AESTHETIC & SURGERY CENTRE,9 Scotts Road Scotts Medical Centre at Pacific Plaza #07-04/05 Singapore 228210,103.831788,1.306595
CURAMED MEDICAL AND AESTHETIC CLINIC,988 UPPER SERANGOON ROAD STARS OF KOVAN #01-06 Singapore 534733,103.887235,1.361907
CUTIS MEDICAL LASER CLINICS,"9 SCOTTS ROAD SCOTTS MEDICAL CENTER , PACIFIC PLAZA #08-06/07 Singapore 228210",103.831788,1.306595
D' SKIN SPECIALIST LAB PTE LTD,238 THOMSON ROAD NOVENA SQUARE #03-22 Singapore 307683,103.843998,1.319826
DA CLINIC @ ANCHORVALE,BLK 351 ANCHORVALE ROAD #01-01 Singapore 540351,103.886435,1.3933378
DA CLINIC @ ANSON,10 ANSON ROAD INTERNATIONAL PLAZA #01-12 Singapore 079903,103.845924,1.276109
DA CLINIC @ BUKIT BATOK,BLK 451 BUKIT BATOK WEST AVENUE 6 #01-02 Singapore 650451,103.7434949,1.353249
DA CLINIC @ POTONG PASIR,51 UPPER SERANGOON ROAD THE POIZ CENTRE #01-53 Singapore 347697,103.8683593,1.3315815
DA CLINIC @ SEMBAWANG,604 SEMBAWANG ROAD SEMBAWANG SHOPPING CENTRE #B1-06 Singapore 758459,103.824824,1.441872
DAILY MEDICAL CENTRE,159 HOUGANG STREET 11 #01-17 Singapore 530159,103.879335,1.351492
DAVID LOH SURGERY,501 Orchard Road Wheelock Place #05-16 Singapore 238880,103.830326,1.304598
DAVID LOH SURGERY,10 SINARAN DRIVE NOVENA MEDICAL CENTER #08-35/36 Singapore 307506,103.844476,1.321061
DAVID TAN MEDICAL AESTHETICS,391B ORCHARD ROAD NGEE ANN CITY TOWER B #09-04 Singapore 238874,103.834289,1.302707
DAWSON MEDICAL CLINIC,BLK 85 DAWSON ROAD #01-05 Singapore 141085,103.810556,1.295379
DAWSON PLACE CLINIC,BLK 57 Dawson Road Dawson Place #02-03 Singapore 142057,103.810934,1.292802
DAYSPRING MEDICAL CLINIC (TAMPINES),2 TAMPINES CENTRAL 5 CENTURY SQUARE #04-09 Singapore 529509,103.943831,1.352738
DB MEDICAL,290 ORCHARD ROAD THE PARAGON #14-10 Singapore 238859,103.836184,1.30451
DERMACARE AESTHETIC & LASER CLINIC,2 ORCHARD TURN ION ORCHARD #05-05 Singapore 238801,103.831767,1.304052
DERMCLEAR AESTHETIC & LASER CLINIC,1 GRANGE ROAD ORCHARD BUILDING #10-03 Singapore 239693,103.837238,1.30142
DOCTOR JAY MEDICAL CENTRE,115 KILLINEY RD Singapore 239553,103.838721,1.2979989
DOCTORS CLINIC & SURGERY,BLK 305 Woodlands Street 31 #01-91 Singapore 730305,103.774129,1.430465
DOCTORS FOR LIFE MEDICAL,3 PICKERING STREET NANKIN ROW #01-02 Singapore 048660,103.847664,1.284855
DOCTORS INC MEDICAL GROUP,BLK 178 TOA PAYOH CENTRAL #01-206 Singapore 310178,103.849135,1.3332949
"DOCTORS KOO, LOH & ASSOCIATES (PTE) LTD",BLK 152 YUNG HO RD #B1-03 Singapore 610152,103.720614,1.327113
DORE MEDICAL CLINIC,160 ROBINSON ROAD SINGAPORE BUSINESS FEDERATION CENTER #04-01 Singapore 068914,103.8475787,1.278112
DOVER CLINIC AND SURGERY PTE LTD,BLK 28 DOVER CRESCENT MULTI STOREY CAR PARK #01-89 Singapore 130028,103.781952,1.304381
DOVER MEDICAL CENTRE,1 FUSIONOPOLIS WAY CONNEXIS #03-05 Singapore 138632,103.787656,1.299622
DR BC NG AESTHETICS,1 Goldhill Plaza #01-39/41/43 Singapore 308899,103.842817,1.318222
DR CHAN CLINIC PTE LTD,BLK 212 Hougang Street 21 #01-327 Singapore 530212,103.888103,1.359509
DR CHAN PENG MUN CLINIC & SURGERY,5 KOEK RD CUPPAGE PLAZA #01-22/23/24 Singapore 228796,103.840857,1.301793
DR CHEN AND PARTNERS MEDICAL CLINIC,9 SIN MING ROAD THOMSON V ONE #B1-01 Singapore 575630,103.8355,1.352992
DR CHIO AESTHETIC AND LASER CENTRE PTE LTD,158 Bedok South Ave 3 #01-581 Singapore 460158,103.945177,1.318719
DR CHUA'S FAMILY CLINIC PTE. LTD.,BLK 638 JURONG WEST STREET 61 PIONEER MALL #02-04 Singapore 640638,103.696988,1.34152
DR CINDY'S MEDICAL AESTHETICS,360 ORCHARD ROAD INTERNATIONAL BUILDING #05-06/06A Singapore 238869,103.830876,1.306348
DR CINDY'S MEDICAL AESTHETICS,10 TAMPINES CENTRAL 1 TAMPINES ONE #05-12 Singapore 529536,103.945206,1.354396
DR CINDY'S MEDICAL AESTHETICS,1 JURONG WEST CENTRAL 2 JURONG POINT #03-05 Singapore 648886,103.706464,1.339874
DR D AESTHETICS MEDICAL CLINIC,541 ORCHARD ROAD LIAT TOWERS #20-01 Singapore 238881,103.830378,1.3052919
DR FELIX LI MEDICAL AESTHETICS CLINIC,20 MALACCA STREET MALACCA CENTRE #01-00 Singapore 048979,103.850606,1.283915
DR GARY'S FAMILY CLINIC,77 INDUS ROAD INDUS GARDEN #01-519 Singapore 160077,103.826739,1.291157
DR GOH SENG HENG & PARTNERS,290 ORCHARD ROAD THE PARAGON #20-05/06 Singapore 238859,103.836184,1.30451
DR HAACH AESTHETIC AND MEDICAL CLINIC,8 SINARAN DRIVE NOVENA SPECIALIST CENTER #04-09 Singapore 307470,103.845191,1.320287
DR HAACH AESTHETIC AND MEDICAL CLINIC,252 NORTH BRIDGE ROAD RAFFLES CITY SHOPPING CENTRE #02-26C/27A Singapore 179103,103.852807,1.294149
DR HAACH AESTHETIC AND MEDICAL CLINIC,181 ORCHARD ROAD ORCHARD CENTRAL #03-22 Singapore 238896,103.840008,1.300934
DR HELEN TAN. CLINIC,225 JURONG EAST STREET 21 #01-801 Singapore 600225,103.737249,1.341813
DR JEREMY CHAN MEDICAL CLINIC,123 LORONG 1 TOA PAYOH #01-493 Singapore 310123,103.845388,1.338662
DR JON YONG AESTHETIC CLINIC,9 SCOTTS ROAD Scotts Medical Center #10-05 Singapore 228210,103.831788,1.306595
DR JOYCE & PARTNERS FAMILY CLINIC,BLK 224A SUMANG LANE MATILDA EDGE #01-01 Singapore 821224,103.8677444,1.3553794
DR JOYCE & PARTNERS FAMILY CLINIC (TOA PAYOH BRANCH),BLK 177 TOA PAYOH CENTRAL #01-146 Singapore 310177,103.84886,1.33388
DR KEVIN CHUA MEDICAL & AESTHETICS,360 ORCHARD ROAD INTERNATIONAL BUILDING #03-05 Singapore 238869,103.830876,1.306348
DR L Y LAI & NEO CLINIC,1 PARK ROAD PEOPLE'S PARK COMPLEX #04-27 Singapore 059108,103.8425309,1.284095
DR LIM LEAN HUAT & ASSOCIATES PTE LTD,101 IRRAWADDY ROAD ROYAL SQUARE AT NOVENA #21-04 TO 05 Singapore 329565,103.842999,1.3202997
DR NAH & LEE FAMILY CLINIC,BLK 780 WOODLANDS CRESCENT MULTI STOREY CAR PARK #01-03 Singapore 730780,103.8016649,1.4481857
DR SOH FAMILY CLINIC,BLK 966 JURONG WEST STREET 93 #01-221 Singapore 640966,103.692912,1.341728
DR STANLEY PECK FAMILY CLINIC,BLK 636 BUKIT BATOK CENTRAL #01-06 Singapore 650636,103.751682,1.349636
DR STEVEN AESTHETICS & LASER CLINIC,BLK 75D REDHILL ROAD #01-86 Singapore 154075,103.815713,1.288515
DR STEVEN ANG AESTHETIC & FAMILY CLINIC,BLK 75D Redhill Road #01-112 Singapore 154075,103.815713,1.288515
DR SYDNEY TAN THE MEDICAL AESTHETIC CLINIC,10 SINARAN DRIVE NOVENA MEDICAL CENTER #11-03 Singapore 307506,103.844476,1.321061
DR TYNG TAN AESTHETICS AND HAIR CLINIC,391B ORCHARD ROAD NGEE ANN CITY TOWER B #08-04 Singapore 238874,103.834289,1.302707
DR VALENTIN LOW AESTHETIC & LASER CLINIC,290 ORCHARD RD PARAGON #08-03 Singapore 238859,103.836184,1.30451
DR W.K. KOO & ASSOCIATES (BUKIT PANJANG) P L,1 Jelebu Road Bukit Panjang Plaza #01-62 Singapore 677743,103.7641529,1.379962
DR W.K. KOO & ASSOCIATES P.L.,1 JURONG WEST CENTRAL 2 JURONG POINT #01-16A&B Singapore 648886,103.706464,1.339874
DR WILL MEDICAL CLINIC PTE LTD,24 RAFFLES PLACE CLIFFORD CENTRE #01-17 Singapore 048621,103.852123,1.283847
DR YVONNE GOH AESTHETICS,1 ORCHARD BOULEVARD CAMDEN MEDICAL CENTRE #09-05 Singapore 248649,103.82371500000001,1.303152
DR. JS MEDICAL CLINIC,371 Beach Road CITYGATE #B1-35 Singapore 199597,103.8622199,1.302638
DR.W FAMILY CLINIC,8 EMPRESS ROAD #01-09 Singapore 260008,103.806296,1.317179
DRS CHAN & TANG FAMILY CLINIC,BLK 125 LORONG 1 TOA PAYOH #01-549 Singapore 310125,103.845538,1.338334
DRS CHUA & PARTNERS PTE LTD,1 TANJONG PAGAR PLAZA #01-10 Singapore 082001,103.842833,1.27573
DRS FERNANDEZ & PARTNERS,1 GRANGE ROAD ORCHARD BUILDING #12-04 Singapore 239693,103.837238,1.30142
DRS JITEN & CAROLINE MEDICAL CENTRE,10 JALAN SERENE SERENE CENTRE #02-01/02 Singapore 258748,103.81374,1.322372
DRS KOO & NEOH MEDICAL GROUP,BLK 29 WOODLANDS IND. PARK E1 NORTH TECH #01-03 Singapore 757716,103.7995,1.455513
DRS KOO & NEOH MEDICAL GROUP,900 SOUTH WOODLANDS DRIVE WOODLANDS CIVIC CENTRE #04-05 Singapore 730900,103.787195,1.435152
DRS KOO & NEOH MEDICAL GROUP,70 WOODLANDS AVENUE 7 ADMIRALTY MRT STATION #01-01 Singapore 738344,103.800957,1.440681
DRS KOO & NEOH MEDICAL GROUP,61 CHOA CHU KANG DRIVE YEW TEE MRT STATION #02-01 Singapore 689715,103.74739,1.397314
"DRS KOO, FOK & ASSOCIATES PTE LTD",55 BENOI ROAD #01-12 Singapore 629907,103.678479,1.326113
"DRS KOO, FOK & ASSOCIATES( PIONEER )",31 JURONG WEST STREET 63 #02-04 Singapore 648310,103.696921,1.337443
"DRS KOO, KOH & ASSOCIATES P.L.",BLK 163 BUKIT MERAH CENTRAL #01-3609 Singapore 150163,103.816987,1.284152
DRS LIM & CHAN CLINIC,BLK 2 LOR LEW LIAN #01-50 Singapore 531002,103.875584,1.3506689
DRS LIM & CHAN CLINIC,BLK 106 HOUGANG AVE 1 #01-1235 Singapore 530106,103.890572,1.353777
"DRS OH, LIM, WONG & PARTNERS",BLK 959 JURONG WEST ST 92 #01-154 Singapore 640959,103.690502,1.341514
"DRS SINGH & PARTNERS, RAFFLES CITY MEDICAL CENTRE",252 NORTH BRIDGE RD RAFFLES CITY SHOPPING CENTRE #02-16 Singapore 179103,103.852807,1.294149
DRS TANG & PARTNERS PTE. LTD.,64 YUNG KUANG ROAD #01-115 Singapore 610064,103.722449,1.332381
DRS THOMPSON & THOMSON RADLINK MEDICARE,24 RAFFLES PLACE CLIFFORD CENTRE #02-08 Singapore 048621,103.852123,1.283847
DRS. BAIN & PARTNERS,2 INTERNATIONAL BUSINESS PARK THE STRATEGY #01-06A/07A Singapore 609930,103.747567,1.32954
DRS. BAIN + PARTNERS,1 RAFFLES QUAY ONE RAFFLES QUAY - NORTH TOWER #09-03 Singapore 048583,103.851928,1.281142
DRS. BAIN AND PARTNERS LLP,1 HARBOUR FRONT AVENUE KEPPEL BAY TOWER #07-06 Singapore 098632,103.818292,1.265032
DRS. GOH & TAN FAMILY CLINIC & SURGERY,BLK 283 Bishan Street 22 #01-191 Singapore 570283,103.844074,1.358924
DRS. KOO & CHOO MEDICAL CLINIC PTE LTD,10 Bukit Batok Central Bukit Batok MRT Station #01-04A Singapore 659958,103.7495689,1.349046
DRS® SHAPE AESTHETICS CLINIC,10 SINARAN DRIVE NOVENA MEDICAL CENTER #10-24 Singapore 307506,103.844476,1.321061
DTAP @ DUO MEDICAL CLINIC,7 FRASER STREET DUO GALLERIA #B3-17/18 Singapore 189356,103.8573119,1.29994
DTAP @ HOLLAND V,15B LORONG LIPUT HOLLAND VILLAGE Singapore 277730,103.795041,1.310556
DTAP @ KOVAN,988 UPPER SERANGOON ROAD STARS OF KOVAN #01-21 Singapore 534733,103.887235,1.361907
DTAP @ NOVENA,10 SINARAN DRIVE NOVENA MEDICAL CENTER #08-31 Singapore 307506,103.844476,1.321061
DTAP @ RAFFLES PLACE,20 CECIL STREET PLUS #02-01 Singapore 049705,103.85048,1.283041
DTAP @ ROBERTSON,11 UNITY STREET ROBERTSON WALK #02-06/07 Singapore 237995,103.84128,1.2921149
DTAP @ SIGLAP,914 EAST COAST ROAD THE DOMAIN #01-04 Singapore 459108,103.924427,1.312499
DTAP @ SOMERSET,1 GRANGE ROAD ORCHARD BUILDING #10-08 Singapore 239693,103.837238,1.30142
DUXTON MEDICAL CLINIC,7 TANJONG PAGAR PLAZA #01-106 Singapore 081007,103.84302,1.276901
DUXTON MEDICAL CLINIC CANBERRA,BLK 361 SEMBAWANG CRESCENT #01-03 Singapore 750361,103.8144946,1.4465702
E MEDICAL CLINIC & SURGERY,BLK 639 Bukit Batok Central #01-34 Singapore 650639,103.7518769,1.349336
E MEDICAL CLINIC & SURGERY,BLK 126 LORONG 1 TOA PAYOH #01-567 Singapore 310126,103.845235,1.337869
E MEDICAL NOVENA,10 SINARAN DRIVE NOVENA MEDICAL CENTER #10-04 Singapore 307506,103.844476,1.321061
E. L. CHIN FAMILY CLINIC & SURGERY PTE. LTD.,432 CLEMENTI AVE 3 #01-272 Singapore 120432,103.762496,1.314085
E.J. TAN CLINIC & SURGERY,BLK 104 JURONG EAST STREET 13 JURONG EAST VILLE #01-100 Singapore 600104,103.737616,1.336586
EAST COAST FAMILY CLINIC,121 MEYER ROAD THE MAKENA #01-05 Singapore 437932,103.894436,1.297985
EAST COAST MEDICAL CENTRE PTE LTD,BLK 57A NEW UPPER CHANGI RD #01-1374 Singapore 462057,103.941309,1.323705
EASTERN CLINIC & SURGERY PTE LTD,BLK 235 JURONG EAST STREET 21 #01-316 Singapore 600235,103.742123,1.339963
EASTERN CLINIC & SURGERY PTE LTD,BLK 318 JURONG EAST STREET 31 #01-48 Singapore 600318,103.73059,1.347326
EASTERN CLINIC AND DENTAL SURGERY,BLK 303 JURONG EAST ST 32 #01-92 Singapore 600303,103.735176,1.344476
EASTERN MEDICAL CENTRE,BLK 631 BEDOK RESERVOIR RD #01-896 Singapore 470631,103.914939,1.332953
EC FAMILY CLINIC,30 EUNOS CRESCENT EUNOS MRT STATION #01-17/18 Singapore 409423,103.902892,1.319782
ECM CLINIC & SURGERY PTE LTD,260 SIMS AVENUE ECM Building #01-01 Singapore 387604,103.882927,1.314882
EDGEDALE MEDICAL CLINIC,BLK 122A EDGEDALE PLAINS #01-187 Singapore 821122,103.9093535,1.3940978
EDGEDALE MEDICAL CLINIC (CAMBRIDGE),BLK 40 CAMBRIDGE ROAD #01-115 Singapore 210040,103.848231,1.315733
EDWIN LIM MEDICAL AESTHETIC CLINIC,5 CHANGI BUSINESS PARK CENTRAL 1 CHANGI CITY POINT #02-12 Singapore 486038,103.9639813,1.3360557
EDWIN LIM MEDICAL AESTHETIC CLINIC (ORCHARD),304 ORCHARD ROAD LUCKY PLAZA #05-51 Singapore 238863,103.833751,1.30436
EE CLINIC,128 ANG MO KIO AVE 3 #01-1859 Singapore 560128,103.8435669,1.370836
EEVA MEDICAL AESTHETIC CLINIC,160 ROBINSON ROAD SINGAPORE BUSINESS FEDERATION CENTER #03-09 Singapore 068914,103.8475787,1.278112
EH MEDICAL,BLK 785E WOODLANDS RISE #01-12 Singapore 735785,103.8048721,1.4470608
EH MEDICAL FAMILY CLINIC (BUKIT BATOK),BLK 292 BUKIT BATOK EAST AVENUE 6 #01-07 Singapore 650292,103.7554146,1.344526
EHA CLINIC,1 SCOTTS ROAD SHAW CENTRE #15-01 Singapore 228208,103.8319286,1.3061399
EHA CLINIC @ JURONG,BLK 492 JURONG WEST STREET 41 #01-40 Singapore 640492,103.724268,1.350203
EIDDWEN FAMILY MEDICINE CLINIC,BLK 34 CASSIA CRESCENT #01-80 Singapore 390034,103.884447,1.309599
EJ FAMILY CLINIC & SURGERY,109 TOA PAYOH LOR 1 #01-314 Singapore 310109,103.846346,1.341253
ELIAS FAMILY CLINIC & SURGERY,BLK 625 ELIAS RD #01-320 Singapore 510625,103.94193,1.378441
ELISSA MEDICAL CLINIC,1 HOUGANG STREET 91 HOUGANG 1 #01-21 Singapore 538692,103.879482,1.376022
ELYON FAMILY CLINIC AND SURGERY,BLK 78B TELOK BLANGAH STREET 32 #01-22 Singapore 102078,103.808121,1.273562
EMMANUEL MEDICAL CLINIC,BLK 272 TAMPINES ST 22 #01-26 Singapore 520272,103.950233,1.349125
ENLIGHT FAMILY CLINIC,BLK 226C Ang Mo Kio Avenue 1 #01-649 Singapore 563226,103.839302,1.367159
ENSOUL BODY MEDICAL CLINIC,360 ORCHARD ROAD INTERNATIONAL BUILDING #08-08 Singapore 238869,103.830876,1.306348
ENSOUL MEDICAL CLINIC,360 ORCHARD ROAD INTERNATIONAL BUILDING #08-01 Singapore 238869,103.830876,1.306348
EON MEDICAL CLINIC,475 UPPER SERANGOON CRESCENT MULTI STOREY CAR PARK #01-04 Singapore 530475,103.9005061,1.3761683
EPION CLINIC MEDICAL AESTHETICS,145 TANGLIN ROAD Singapore 247931,103.824495,1.3052569
ESA CLINIC,51 CALSHOT ROAD Singapore 509927,103.977967,1.376011
ESSENTIAL FAMILY CLINIC & SURGERY,BLK 626A WOODLANDS DR 52 #01-01 Singapore 731626,103.80008,1.434175
ESTEEMED MEDICAL CLINIC,260 ANG MO KIO STREET 21 MULTI STOREY CAR PARK #01-01 Singapore 560260,103.8347479,1.3690067
ESTHER YEO CLINIC,BLK 256 JURONG EAST ST 24 #01-389 Singapore 600256,103.7381879,1.344076
ETERN MEDICAL CLINIC,BLK 70 PUNGGOL CENTRAL PUNGGOL MRT STATION #01-05 Singapore 828868,103.901997,1.405158
ETERN MEDICAL CLINIC (FERNVALE PALM),BLK 432A SENGKANG WEST WAY #01-03 Singapore 791432,103.877108,1.394748
ETERN MEDICAL CLINIC (PUNGGOL SUMANG LRT),BLK 308C PUNGGOL WALK WATERWAY TERRACES I #01-302 Singapore 823308,103.8994424,1.4082973
ETERN MEDICAL CLINIC (SENGKANG),33 SENGKANG WEST AVENUE THE SELETAR MALL #03-33 Singapore 797653,103.8760834,1.3915208
ETERNA MEDICAL CLINIC,BLK 629 ANG MO KIO AVENUE 4 #01-994 Singapore 560629,103.839797,1.380134
EVANGEL MEDICAL CLINIC,BLK 10 CHAI CHEE RD #01-01 Singapore 467010,103.924472,1.327006
EVERCARE MEDICAL CLINIC,BLK 253 CHOA CHU KANG AVE 1 #01-14A Singapore 680253,103.744413,1.377542
EVERCARE MEDICAL CLINIC (475) PTE LTD,BLK 475 CHOA CHU KANG AVE 3 SUNSHINE PLACE #02-02 Singapore 680475,103.73862,1.377746
EVERHEALTH FAMILY CLINIC & SURGERY,BLK 762 JURONG WEST ST 75 GEK POH SHOPPING CENTRE #01-290 Singapore 640762,103.698195,1.349156
EVERHEALTH MEDICAL CENTRE,BLK 540 HOUGANG AVENUE 8 #B1-1235 Singapore 530540,103.891319,1.3777703
EVERTON CLINIC,BLK 7 EVERTON PARK #01-17 Singapore 080007,103.839344,1.277088
EVERWELL CLINIC & SURGERY,BLK 45 OWEN RD #01-289 Singapore 210045,103.850834,1.315617
EXCEL FAMILY CLINIC,21 HOUGANG ST 51 HOUGANG GREEN SHOPPING MALL #01-06 Singapore 538719,103.888221,1.379502
EXCELSIOR CLINIC & SURGERY,BLK 283 BT BATOK EAST AVE 3 #01-261 Singapore 650283,103.757493,1.3472519
EXECUTIVE HEALTH SCREENERS,290 ORCHARD ROAD PARAGON #07-07/08 Singapore 238859,103.836184,1.30451
EXECUTIVE HEALTH SCREENERS,38 IRRAWADDY ROAD Mount Elizabeth Novena Hospital #02-02 Singapore 329563,103.844377,1.322126
EXECUTIVE HEALTH SCREENERS,"6A NAPIER ROAD GLENEAGLES HOSPITAL, ANNEX BLOCK #02-36 Singapore 258500",103.819973,1.307063
EXECUTIVE HEALTH SCREENERS,3 MOUNT ELIZABETH MOUNT ELIZABETH MEDICAL CENTRE #02-02 Singapore 228510,103.835553,1.3045739
EXECUTIVE HEALTH SCREENERS,321 JOO CHIAT PLACE PARKWAY EAST HOSPITAL #01-00 Singapore 427990,103.909332,1.31495
EXPRESS MEDICAL CLINIC,BLK 640 ROWELL ROAD #01-56 Singapore 200640,103.854996,1.307482
F K LIM FAMILY CLINIC,267 TAMPINES ST 21 #01-43 Singapore 520267,103.949236,1.350829
FABER CLINIC & SURGERY,BLK 501 WEST COAST DR #01-284 Singapore 120501,103.758457,1.311289
FACE ON CLINIC BY DOCTORS,101 THOMSON ROAD UNITED SQUARE #1-45/46 Singapore 307591,103.843491,1.317711
FAITH CLINIC (BEDOK),BLK 746 BEDOK RESERVOIR ROAD #01-3013 Singapore 470746,103.921216,1.337297
FAITH CLINIC (JURONG WEST),BLK 762 JURONG WEST ST 75 #02-256D Singapore 640762,103.698195,1.349156
FAITH CLINIC (SIMEI),BLK 139 SIMEI ST 1 #01-10 Singapore 520139,103.956506,1.34669
FAITH CLINIC (TOA PAYOH),BLK 211 TOA PAYOH LOR 8 #01-19 Singapore 310211,103.853781,1.340617
FAITH CLINIC (YISHUN),BLK 598 YISHUN RING ROAD WISTERIA MALL #01-11 Singapore 768698,103.8412212,1.4182663
FAITH FAMILY CLINIC,57 MARINE TERRACE #01-113 Singapore 440057,103.9154159,1.306489
FAITH HEALTHCARE (RIVERVALE),11 RIVERVALE CRESCENT RIVERVALE MALL #02-15 Singapore 545082,103.904984,1.392002
FAITH HEALTHCARE (TAMPINES),11 TAMPINES STREET 32 TAMPINES MART #01-11 Singapore 529287,103.9602589,1.354349
FAITH MEDICAL CLINIC & SURGERY,BLK 487C TAMPINES ST 45 #B1-103 Singapore 522487,103.9574279,1.360636
FAJAR FAMILY CLINIC & SURGERY,445 FAJAR ROAD FAJAR SHOPPING CENTRE #01-550 Singapore 670445,103.770558,1.383802
FAMICARE BEDOK CLINIC PTE LTD,BLK 158 Bedok South Avenue 3 #01-581 Singapore 460158,103.945177,1.318719
FAMILY CARE CLINIC & SURGERY,BLK 608 ANG MO KIO AVE 5 #01-2785 Singapore 560608,103.8367169,1.378777
FAMILY CARE CLINIC PTE LTD,BLK 415 BT BATOK WEST AVE 4 #01-272 Singapore 650415,103.746616,1.363224
FAMILY CARE MEDICAL CENTRE PTE LTD,916 Hougang Ave 9 #01-08 Singapore 530916,103.884238,1.374913
FAMILY DOCTORS AT 365,BLK 365 CORPORATION DRIVE #01-407 Singapore 610365,103.720119,1.337678
FAMILY HEALTH CLINIC,BLK 43 Holland Drive #01-65 Singapore 270043,103.7929039,1.307439
FAMILY HEALTH CLINIC & SURGERY,BLK 2 BALESTIER ROAD BALESTIER HILL SHOPPING CENTRE #01-651 Singapore 320002,103.8429309,1.325893
FAMILY HEALTH MEDICAL CENTRE,BLK 226G ANG MO KIO AVE 1 #01-681 Singapore 567226,103.839876,1.366851
FAMILY HEALTHCARE CLINIC & SURGERY,BLK 151 SERANGOON NORTH AVE 2 #01-35 Singapore 550151,103.874318,1.36926
FAMILY HEALTHCARE CLINIC & SURGERY PTE LTD,BLK 523 HOUGANG AVE 6 #01-119 Singapore 530523,103.890519,1.3737299
FAMILY LIFE CLINIC,727 CLEMENTI WEST ST 2 #01-264 Singapore 120727,103.763716,1.304455
FAMILY MEDICAL CLINIC PTE LTD,BLK 280 BT BATOK EAST AVE 3 #01-317 Singapore 650280,103.757137,1.347743
FAMILY MEDICARE CLINIC & SURGERY,BLK 721 ANG MO KIO AVE 8 #01-2815 Singapore 560721,103.847542,1.372561
FAMILY MEDICINE CLINIC,BLK 58 MARINE TERRACE #01-65 Singapore 440058,103.9137329,1.306093
FAMILY MEDICINE CLINIC CHINATOWN,133 NEW BRIDGE ROAD CHINATOWN POINT #02-09 Singapore 059413,103.8449399,1.285202
FAMILY POINT CLINIC & SURGERY,BLK 399 YUNG SHENG ROAD #01-55 Singapore 610399,103.721053,1.3347739
FAMILYCARE CLINIC & SURGERY,BLK 85C TOA PAYOH LOR 4 #01-380 Singapore 313085,103.847346,1.336315
FAMILYCARE CLINIC AND SURGERY,BLK 55 CHAI CHEE DRIVE #01-188 Singapore 460055,103.919335,1.3265769
FAR EAST MEDICAL PRACTITIONERS PTE LTD,545 ORCHARD ROAD FAR EAST SHOPPING CENTRE #06-07 Singapore 238882,103.830139,1.3055779
FEMA CLINIC & SURGERY,10 SINARAN DRIVE NOVENA MEDICAL CENTER #09-32 Singapore 307506,103.844476,1.321061
FERNVALE FAMILY CLINIC,BLK 405C FERNVALE LANE #01-101 Singapore 793405,103.873532,1.389259
FINEST HEALTH MEDICAL CENTRE,19 LORONG 7 TOA PAYOH KIM KEAT PALM #01-268 Singapore 310019,103.856473,1.335312
FIRST CARE FAMILY CLINIC & SURGERY,253 JURONG EAST ST 24 #01-257 Singapore 600253,103.737137,1.343772
FIRST LIGHT FAMILY CLINIC & SURGERY,BLK 272 Bukit Batok East Avenue 4 #01-72 Singapore 650272,103.757788,1.348833
FIRST MEDICAL CENTRE (YISHUN) PTE LTD,BLK 110 YISHUN RING RD #01-399 Singapore 760110,103.829046,1.433558
FIRST MEDICAL CENTRE PTE LTD,BLK 169 STIRLING ROAD #01-1165 Singapore 140169,103.802955,1.290402
FIRST MEDICAL CLINIC & SURGERY,BLK 167 WOODLANDS ST 11 #01-11 Singapore 730167,103.775832,1.433204
FIRSTHEALTH CLINIC & SURGERY,BLK 126 KIM TIAN ROAD MULTI STOREY CAR PARK #01-04 Singapore 160126,103.8295009,1.282525
FOCUS MEDICAL CENTRE,137 TECK WHYE LANE TECK WHYE SHOPPING CENTRE #01-329 Singapore 680137,103.75224300000001,1.380057
FONG CLINIC,BLK 162 MEI LING ST #01-361 Singapore 140162,103.8027989,1.292172
FOO AND ONG FAMILY CLINIC PTE. LTD.,BLK 151 BUKIT BATOK ST 11 #01-256 Singapore 650151,103.744243,1.348739
FOO CLINIC,BLK 962 JURONG WEST ST 91 #01-306 Singapore 640962,103.691672,1.3417269
FORUM MEDICAL CLINIC,583 ORCHARD ROAD FORUM #11-04 Singapore 238884,103.828639,1.306339
FRANCES MEDICAL & AESTHETIC CLINIC,22 SCOTTS ROAD GOODWOOD PARK HOTEL #01-02 Singapore 228221,103.834529,1.308349
FRANKEL CLINIC,BLK 697 EAST COAST ROAD #01-01 Singapore 459060,103.922154,1.3116969
FRASER MEDICAL CENTRE,BLK 78A TELOK BLANGAH ST 32 #01-07 Singapore 101078,103.8090239,1.273512
FREIA MEDICAL,435 ORCHARD ROAD WISMA ATRIA #19-03 Singapore 238877,103.833056,1.30351
FRIENDSHIP CLINIC & SURGERY,BLK 1 JALAN BUKIT MERAH #01-4524 Singapore 150001,103.8081,1.28649
FRONTIER FAMILY MEDICINE CLINIC,3151 COMMONWEALTH AVENUE WEST CITYVIBE #04-01 Singapore 129581,103.765158,1.314319
FRONTIER MEDICAL ASSOCIATES,BLK 982 BUANGKOK CRESCENT #01-03 Singapore 530982,103.87933,1.380817
FRONTIER MEDICAL ASSOCIATES,BLK 163 ANG MO KIO AVE 4 #01-426 Singapore 560163,103.838189,1.373542
FRONTIER MEDICAL ASSOCIATES,BLK 678D JURONG WEST STREET 64 #01-347 Singapore 644678,103.70326,1.3449819
FRONTIER MEDICAL ASSOCIATES,BLK 304 UBI AVENUE 1 #01-87 Singapore 400304,103.901257,1.329443
FRONTIER MEDICAL ASSOCIATES,BLK 899C WOODLANDS DR 50 #01-296 Singapore 732899,103.794974,1.436555
FRONTIER MEDICAL ASSOCIATES,BLK 654 YISHUN AVE 4 #01-437 Singapore 760654,103.840472,1.4229179
FRONTIER MEDICAL ASSOCIATES,105 CANBERRA STREET #01-11 Singapore 750105,103.8322166,1.449031
FRONTIER MEDICAL ASSOCIATES,BLK 440 BUKIT BATOK WEST AVENUE 8 #01-05 Singapore 650440,103.7394473,1.3556534
FRONTIER MEDICAL ASSOCIATES,BLK 451 BUKIT BATOK WEST AVE 6 #01-07 Singapore 650451,103.7434949,1.353249
FRONTIER MEDICAL ASSOCIATES,BLK 691 WOODLANDS DRIVE 73 #01-04 Singapore 730691,103.8061399,1.4405931
FRONTIER PEOPLE'S CLINIC,BLK 123 BEDOK NORTH STREET 2 #01-152 Singapore 460123,103.937359,1.329592
FULLERTON HEALTH @ AMS,7000 ANG MO KIO AVENUE 5 #01-00 Singapore 569877,103.872842,1.377684
FULLERTON HEALTH @ DRS TRYTHALL HOY DAVIES,391B ORCHARD ROAD NGEE ANN CITY TOWER B #25-01/07/08 Singapore 238874,103.834289,1.302707
FULLERTON HEALTH @ GLOBALFOUNDRIES,60 WOODLANDS IND PARK D ST 2 FAB 7 GLOBALFOUNDRIES #03-00 Singapore 738406,103.767112,1.438347
FULLERTON HEALTH @ LUMILEDS,190 YISHUN AVENUE 7 Singapore 768925,103.836587,1.440684
FULLERTON HEALTH @ MICRON FAB10N,1 NORTH COAST DRIVE Singapore 757432,103.793629,1.45482
FULLERTON HEALTH @ MICRON MSB,990 BENDEMEER ROAD MICRON BUILDING Singapore 339942,103.8646179,1.3183689
FULLERTON HEALTH @ NTU,36 NANYANG AVENUE NANYANG TECHNOLOGICAL UNIVERSITY #01-01/02 Singapore 639801,103.682602,1.345568
FULLERTON HEALTH @ OFC,10 COLLYER QUAY OCEAN FINANCIAL CENTRE #03-08/09 Singapore 049315,103.852016,1.283028
FULLERTON HEALTH @ PASIR PANJANG,"3 HARBOUR DRIVE, GROUND LEVEL Pasir Panjang Terminal Building 3 Singapore 117404",103.7910261,1.2750342
FULLERTON HEALTH @ STATS CHIPPAC,5 YISHUN STREET 23 Singapore 768442,103.842371,1.439902
FULLERTON HEALTH @ TRACTORS,26 BENOI SECTOR Singapore 629858,103.689728,1.31607
FULLERTON HEALTH @ UBS,1 RAFFLES QUAY #45-00 Singapore 048583,103.851928,1.281142
FULLERTON HEALTH @ USG 1,"5 SERANGOON NORTH AVENUE 5 Level 1, United Test & Assembly Center Ltd Singapore 554916",103.867586,1.374048
FULLERTON HEALTH @ WATSONS (CHANGI CITY POINT),5 CHANGI BUSINESS PARK CENTRAL 1 CHANGI CITY #B1-14/15 Singapore 486038,103.9639813,1.3360557
FULLERTON HEALTH@PSA FLOATEL,7B KEPPEL ROAD TANJONG PAGAR COMPLEX Singapore 089055,103.842328,1.271419
FULLERTON HEALTHCARE @ ARC,460 ALEXANDRA ROAD #02-18 Singapore 119963,103.801381,1.273673
FULLERTON HEALTHCARE @ BAT,"15 SENOKO LOOP, GROUND FLOOR Singapore 758168",103.802369,1.45822
FULLERTON HEALTHCARE @ DRS TRYTHALL HOY DAVIES,1 JURONG WEST CENTRAL 2 JURONG POINT SHOPPING CENTRE #B1A-19B Singapore 648886,103.706464,1.339874
FULLERTON HEALTHCARE @ GETHIN-JONES,78 SHENTON WAY #04-01 Singapore 079120,103.844893,1.273044
FULLERTON HEALTHCARE @ MBFC,10 MARINA BOULEVARD TOWER 2 MARINA BAY FINANCIAL CENTRE #01-03/03A Singapore 018981,103.854149,1.279637
FULLERTON HEALTHCARE @ METROPOLIS,BLK 9 NORTH BUONA VISTA DRIVE THE METROPOLIS #01-03 Singapore 138588,103.7910604,1.3066305
FULLERTON HEALTHCARE @ OFS,81 PASIR RIS HEIGHTS OVERSEAS FAMILY SCHOOL #A01-03 Singapore 519292,103.9420202,1.3809954
FULLERTON HEALTHCARE SCREENING CENTRE,391B ORCHARD ROAD NGEE ANN CITY TOWER B #26-02 Singapore 238874,103.834289,1.302707
FULLERTON HEALTHCARE@DRS TRYTHALL HOY DAVIES,1 JURONG WEST CENTRAL 2 JURONG POINT SHOPPING CENTRE #B1A-19A Singapore 648886,103.706464,1.339874
FUNAN CLINIC,5 COLEMAN ST EXCELSIOR SHOPPING CENTRE #03-20/21 Singapore 179805,103.849688,1.29194
FUSION MEDICAL & HEALTH SCREENING CENTRE,1 FUSIONOPOLIS LINK NEXUS @ONE-NORTH #01-05 Singapore 138542,103.7896702,1.2991922
FUSION MEDICAL HEALTH SCREENING & AESTHETIC,501 ORCHARD ROAD WHEELOCK PLACE #04-11 Singapore 238880,103.830326,1.304598
G & H MEDICAL CLINIC PTE LTD,BLK 106 YISHUN RING ROAD #01-173 Singapore 760106,103.827353,1.431553
G H HENG CLINIC,BLK 133 JLN BUKIT MERAH #01-1522 Singapore 160133,103.827307,1.279541
G P MEDICAL CENTRE & SURGERY,35 SELEGIE ROAD PARKLANE SHOPPING MALL #03-03 Singapore 188307,103.849458,1.300626
G S CLINIC & SURGERY,BLK 632 ANG MO KIO AVE 4 #01-960 Singapore 560632,103.841406,1.379999
G.I.F.T MEDICAL CENTRE,389 UPPER ALJUNIED RD Singapore 367874,103.878583,1.33312
GALILEE CLINIC,BLK 342 UBI AVE 1 #01-935 Singapore 400342,103.901084,1.326417
GANGNAM LASER CLINIC,1 MARITIME SQUARE HARBOURFRONT CENTRE #03-55 Singapore 099253,103.819304,1.264553
GANGNAM LASER CLINIC,1 RAFFLES PLACE ONE RAFFLES PLACE #05-10/11 Singapore 048616,103.851082,1.284479
GENERAL PRACTICE FAMILY CLINIC & SURGERY,BLK 68 Kallang Bahru #01-3219 Singapore 330068,103.869896,1.322958
GETHIN -JONES MEDICAL PRACTICE PTE LTD,205 Braddell Road Singapore 579701,103.859222,1.342819
GEYLANG BAHRU CLINIC,BLK 16 UPPER BOON KENG RD #01-1093 Singapore 380016,103.87148,1.315498
GEYLANG SERAI CLINIC,138 CHANGI RD Singapore 419722,103.9016,1.31688
GLAXO WELLCOME MANUFACTURING MEDICAL CENTRE,1 PIONEER SECTOR 1 Singapore 628413,103.660897,1.309062
GLENEAGLES MEDICAL SUITES,6A NAPIER ROAD GLENEAGLES HOSPITAL #03-00 Singapore 258500,103.819973,1.307063
GLOBAL CARE MEDICAL,77 JALAN MALU-MALU KINDOL GARDENS #01-77 Singapore 769687,103.825957,1.4440249
GLOBAL MEDICAL CENTRE,163 TANGLIN ROAD TANGLIN MALL #03-07 Singapore 247933,103.823345,1.304713
GOH CLINIC & SURGERY,BLK 204 HOUGANG ST 21 #01-101 Singapore 530204,103.884919,1.358853
GOH CLINIC + SURGERY,BLK 283 BT BATOK EAST AVE 3 #01-271 Singapore 650283,103.757493,1.3472519
GOH MEDICAL CLINIC,BLK 136 POTONG PASIR AVE 3 #01-164 Singapore 350136,103.866477,1.334079
GOKEN LUXE AESTHETICS PRACTICE,277B South Bridge Road #03-00 Singapore 058826,103.845235,1.281778
GOLDEN MILE CLINIC,5001 BEACH ROAD GOLDEN MILE COMPLEX #02-93 Singapore 199588,103.864945,1.302908
GOLDZONE MEDICAL CLINIC,37 DUXTON ROAD Singapore 089501,103.843442,1.278848
GOODDOCTORS MEDICAL CLINIC,18 YISHUN AVENUE 9 JUNCTION NINE #02-55 Singapore 768897,103.8417268,1.4331242
GOODHEALTH MEDICAL CENTRE,644 HOUGANG AVE 8 #01-275 Singapore 530644,103.881255,1.37148
GOODWILL CLINIC,BLK 685 RACE COURSE ROAD #01-328 Singapore 210685,103.856862,1.314244
GPK CLINIC (ORCHARD),BLK 391B ORCHARD ROAD NGEE ANN CITY TOWER B #08-05 Singapore 238874,103.834289,1.302707
GRACE (SL) MEDICAL CENTRE,BLK 811 HOUGANG CENTRAL #01-208 Singapore 530811,103.893725,1.371823
GRACE CLINIC,BLK 333 KRETA AYER ROAD #02-14 Singapore 080333,103.842723,1.2803199
GRACE CLINIC & SURGERY,BLK 607 ANG MO KIO AVE 4 #01-1295 Singapore 560607,103.838706,1.380428
GREAT HEALTH MEDICAL CLINIC,BLK 407 ANG MO KIO AVENUE 10 #01-749 Singapore 560407,103.855275,1.361909
GREEN CROSS MEDICAL CENTRE,BLK 824 TAMPINES ST 81 #01-30 Singapore 520824,103.932672,1.3490819
GREENFOREST FAMILY CLINIC,BLK 878C TAMPINES AVENUE 8 #01-71 Singapore 523878,103.9293105,1.3508898
GREENLIFE CLINIC & SURGERY,11 CANBERRA RD SEMBAWANG MRT STATION #02-01 Singapore 759775,103.819791,1.449009
GREENLIFE CLINIC & SURGERY,624 CHOA CHU KANG STREET 62 YEW TEE SHOPPING CENTRE #01-230 Singapore 680624,103.7468279,1.398094
GREENLINK MEDICAL CLINIC,BLK 807 YISHUN RING ROAD #01-4213 Singapore 760807,103.831389,1.4168099
GSH CLINIC & SURGERY PTE. LTD.,9 YIO CHU KANG ROAD SPACE @ KOVAN #01-40 Singapore 545523,103.876947,1.354713
H S LEE CLINIC & SURGERY,BLK 173 YISHUN AVE 7 #01-823 Singapore 760173,103.830921,1.43708
HALLEY BODY SLIMMING CLINIC,277 ORCHARD ROAD ORCHARD GATEWAY #03-16 Singapore 238858,103.839192,1.300542
HALLEY MEDICAL AESTHETICS,277 ORCHARD ROAD ORCHARD GATEWAY #03-15 Singapore 238858,103.839192,1.300542
HAMID FAMILY CLINIC & SURGERY,BLK 156 Pasir Ris St 13 #01-35 Singapore 510156,103.96292,1.363978
HARMONY FAMILY CLINIC,BLK 235 CHOA CHU KANG CENTRAL #B1-25 Singapore 680235,103.748745,1.379759
HAVELOCK FAMILY CLINIC,BLK 22 HAVELOCK RD #01-709 Singapore 160022,103.828705,1.288768
HEALTH FIRST FAMILY CLINIC,BLK 26 JALAN MEMBINA MULTI STOREY CAR PARK #01-06 Singapore 161026,103.825796,1.282517
HEALTH OUTREACH CLINIC,545 ORCHARD ROAD FAR EAST SHOPPING CENTRE #B1-01/02 Singapore 238882,103.830139,1.3055779
HEALTH PARTNERS FAMILY CLINIC,1 BT BATOK CENTRAL LINK WEST MALL #01-37 Singapore 658713,103.749107,1.349649
HEALTH PARTNERS MEDICAL CLINIC,100 Cecil Street The Globe #09-01 Singapore 069532,103.848965,1.281143
HEALTH PARTNERS MEDICAL CLINIC (SIGLAP),23 UPPER EAST COAST ROAD CRESCENDO BUILDING Singapore 455289,103.926153,1.312971
HEALTH PARTNERSHIP MEDICAL CENTRE,BLK 109 BUKIT PURMEI RD #01-145 Singapore 090109,103.825288,1.273916
HEALTHBRIDGE FAMILY CLINIC,BLK 615A EDGEFIELD PLAINS PUNGGOL SPRING #01-327 Singapore 821615,103.910372,1.402966
HEALTHCARE AMK MEDICAL CLINIC,BLK 157 ANG MO KIO AVENUE 4 MAYFLOWER SHOPPING & FOOD CENTRE #01-578 Singapore 560157,103.839382,1.37526
HEALTHCARE FAMILY CLINIC & SURGERY,BLK 403 SIN MING AVE #01-311 Singapore 570403,103.833429,1.362925
HEALTHCARE HOUGANG MEDICAL CLINIC,BLK 311 HOUGANG AVENUE 5 #01-191 Singapore 530311,103.894723,1.365636
HEALTHCARE MEDICAL @ KOVAN,BLK 208 HOUGANG STREET 21 #01-205 Singapore 530208,103.886685,1.358844
HEALTHCARE MEDICAL @ RAILMALL,"446 UPPER BUKIT TIMAH ROAD, RAIL MALL Singapore 678067",103.767493,1.359595
HEALTHCONNEXION MEDICAL CLINIC,1 FARRER PARK STATION ROAD CONNEXION #16-12/13 Singapore 217562,103.854285,1.312316
HEALTHIFY MEDICAL FAMILY CLINIC,262 BALESTIER ROAD Okio #01-04 Singapore 329714,103.8531239,1.322159
HEALTHLIFE FAMILY CLINIC,BLK 296A BUKIT BATOK STREET 22 SKYLINE II @ BUKIT BATOK #01-64 Singapore 651296,103.7466815,1.3440014
HEALTHLINE FAMILY CLINIC & SURGERY PTE. LTD.,BLK 25A CHAI CHEE ROAD #01-467 Singapore 461025,103.924153,1.323408
HEALTHLINK (AMK) MEDICAL CENTRE,BLK 108 ANG MO KIO AVE 4 #01-86 Singapore 560108,103.838173,1.371119
HEALTHLINK FAMILY CLINIC & SURGERY,BLK 21 GHIM MOH ROAD #01-187 Singapore 270021,103.789243,1.310653
HEALTHLINK MEDICAL CLINIC,BLK 635 VEERASAMY ROAD #01-154 Singapore 200635,103.855089,1.306441
HEALTHLINK MEDICAL CLINIC & SURGERY,BLK 5 UPPER ALJUNIED LANE #01-46 Singapore 360005,103.879544,1.334119
HEALTHMARK CLINIC (PASIR RIS),BLK 735 PASIR RIS STREET 72 PASIR RIS WEST PLAZA #01-314 Singapore 510735,103.936062,1.379692
HEALTHMARK FAMILY CLINIC (COMPASSVALE),263 Compassvale Street #01-02/03 Singapore 540263,103.895953,1.39484
HEALTHMARK FAMILY MEDICINE CLINIC,BLK 601 Choa Chu Kang St 62 #01-09 Singapore 680601,103.7448409,1.396952
HEALTHMARK MEDICAL CLINIC,BLK 639 Punggol Drive #01-06 Singapore 820639,103.915923,1.399345
HEALTHMARK PIONEER MALL CLINIC,638 Jurong West Street 61 Pioneer Mall #02-08 Singapore 640638,103.696988,1.34152
HEALTHMATTERS - THE FAMILY PRACTICE,"1 Pasir Ris Close, Downtown East #02-309/310 Singapore 519599",103.9552726,1.3789473
HEALTHMED FAMILY CLINIC (BUKIT PANJANG),BLK 416 Saujana Road #01-50 Singapore 670416,103.7683349,1.383225
HEALTHPATH MEDICAL CLINIC AND SURGERY,BLK 338 ANG MO KIO AVENUE 1 #01-1651 Singapore 560338,103.8487619,1.363639
HEALTHPLUS CLINIC & SURGERY,631 BEDOK RESERVOIR ROAD #01-898 Singapore 470631,103.914939,1.332953
HEALTHPLUS FAMILY CLINIC & SURGERY,BLK 78A TELOK BLANGAH ST 32 #01-02 Singapore 101078,103.8090239,1.273512
HEALTHPOINT FAMILY CLINIC & SURGERY PTE LTD,BLK 48 TANGLIN HALT RD #01-337 Singapore 142048,103.797566,1.300766
HEALTHPRO CLINIC AND SURGERY,820 TAMPINES ST 81 #01-516 Singapore 520820,103.936179,1.347988
HEALTHSERVE (JURONG) COMMUNITY MEDICAL CLINIC,5D JALAN PAPAN ASPRI-WESTLITE PAPAN #01-34/36 Singapore 619421,103.727914,1.3223695
HEALTHSERVE (MANDAI) COMMUNITY CLINIC,BLK 36 MANDAI ESTATE WESTLITE MANDAI DORMITORY #00-00 Singapore 729940,103.7581933,1.4072299
HEALTHSPRINGS LASER AND AESTHETIC CLINIC,541 ORCHARD ROAD LIAT TOWERS #11-01 Singapore 238881,103.830378,1.3052919
HEALTHSPRINGS MEDICAL ASSOCIATES,541 ORCHARD RD LIAT TOWERS #10-02 Singapore 238881,103.830378,1.3052919
HEALTHSPRINGS MEDICAL CLINIC,524A JELAPANG ROAD GREENRIDGE SHOPPING CENTRE #02-01/02 Singapore 671524,103.766361,1.384839
HEALTHWAY JAPANESE MEDICAL,176 ORCHARD ROAD THE CENTREPOINT #06-05 Singapore 238843,103.839829,1.301949
HEALTHWAY MEDICAL,218 BEDOK NORTH ST 1 #01-17 Singapore 460218,103.933686,1.3274919
HEALTHWAY MEDICAL,90 Hougang Avenue 10 Hougang Mall #04-06 Singapore 538766,103.893938,1.372629
HEALTHWAY MEDICAL,BLK 690 JURONG WEST CENTRAL 1 #01-193 Singapore 640690,103.706779,1.341328
HEALTHWAY MEDICAL,BLK 417 YISHUN AVE 11 #01-321 Singapore 760417,103.846319,1.424411
HEALTHWAY MEDICAL,BLK 110 LENGKONG TIGA #01-231 Singapore 410110,103.910782,1.323791
HEALTHWAY MEDICAL,168 Punggol Field #02-07A Singapore 820168,103.91291,1.394214
HEALTHWAY MEDICAL,BLK 503 Tampines Central 1 #01-311 Singapore 520503,103.945002,1.355612
HEALTHWAY MEDICAL,BLK 177 Toa Payoh Central #01-130 Singapore 310177,103.84886,1.33388
HEALTHWAY MEDICAL,BLK 330 ANG MO KIO AVE 1 #01-1803 Singapore 560330,103.85096,1.362468
HEALTHWAY MEDICAL,BLK 108 HOUGANG AVE 1 #01-1299 Singapore 530108,103.889926,1.352862
HEALTHWAY MEDICAL,6A SHENTON WAY Downtown Gallery #02-15 Singapore 068815,103.8481298,1.2764991
HEALTHWAY MEDICAL,BLK 406 SEMBAWANG DR #01-820 Singapore 750406,103.817017,1.452962
HEALTHWAY MEDICAL,BLK 118 RIVERVALE DRIVE RIVERVALE PLAZA #02-17 Singapore 540118,103.901579,1.385427
HEALTHWAY MEDICAL,BLK 625 ELIAS RD ELIAS MALL #01-322 Singapore 510625,103.94193,1.378441
HEALTHWAY MEDICAL,BLK 101 TOWNER ROAD #01-236 Singapore 322101,103.861129,1.319673
HEALTHWAY MEDICAL,888 WOODLANDS DR 50 888 PLAZA #02-737 Singapore 730888,103.79527,1.437703
HEALTHWAY MEDICAL,BLK 201D TAMPINES STREET 21 #01-1143 Singapore 524201,103.953629,1.352255
HEALTHWAY MEDICAL,BLK 101 YISHUN AVENUE 5 #01-15 Singapore 760101,103.8276489,1.4306319
HEALTHWAY MEDICAL,3 Gateway Drive Westgate #04-32 Singapore 608532,103.7427983,1.3345328
HEALTHWAY MEDICAL,BLK 748 YISHUN STREET 72 #01-230 Singapore 760748,103.833366,1.427617
HEALTHWAY MEDICAL,BLK 446 BUKIT BATOK WEST AVENUE 8 #01-03 Singapore 650446,103.739272,1.3501309
HEALTHWAY MEDICAL,705 SERANGOON ROAD KWONG WAI SHIU HOSPITAL #01-06 Singapore 328127,103.8593269,1.317285
HEALTHWAY MEDICAL,BLK 461 YISHUN AVENUE 6 #01-05 Singapore 760461,103.8502523,1.4272274
HEALTHWAY MEDICAL,BLK 267 Compassvale Link #01-04 Singapore 540267,103.897067,1.38376
HEALTHWAY MEDICAL,10 SINARAN DRIVE Novena Medical Center #09-36 Singapore 307506,103.844476,1.321061
HEALTHWAY MEDICAL,BLK 727 Clementi West Street 2 #01-258 Singapore 120727,103.763716,1.304455
HEALTHWAY MEDICAL,BLK 308 ANCHORVALE ROAD MULTI STOREY CAR PARK #01-03 Singapore 540308,103.886444,1.38957
HEALTHWAY MEDICAL,BLK 960 JURONG WEST ST 92 #01-166 Singapore 640960,103.691314,1.341406
HEALTHWAY MEDICAL,BLK 475 CHOA CHU KANG AVE 3 SUNSHINE PLACE #02-03 Singapore 680475,103.73862,1.377746
HEALTHWAY MEDICAL,BLK 721 Ang Mo Kio Ave 8 #01-2801 Singapore 560721,103.847542,1.372561
HEALTHWAY MEDICAL,BLK 445 FAJAR ROAD FAJAR SHOPPING CENTRE #02-534 Singapore 670445,103.770558,1.383802
HEALTHWAY MEDICAL,BLK 710 TAMPINES ST 71 #01-134 Singapore 520710,103.937685,1.35876
HEALTHWAY MEDICAL,BLK 443 CLEMENTI AVENUE 3 #01-63 Singapore 120443,103.764019,1.314195
HEALTHWAY MEDICAL,30 SEMBAWANG DRIVE SUN PLAZA #03-20 Singapore 757713,103.8191873,1.4483845
HEALTHWAY MEDICAL,BLK 153 BUKIT BATOK ST 11 #01-284 Singapore 650153,103.744289,1.347569
HEALTHWAY MEDICAL,717 WOODLANDS DRIVE 70 #01-114 Singapore 730717,103.799198,1.441111
HEALTHWAY MEDICAL,BLK 452 ANG MO KIO AVE 10 #01-1787 Singapore 560452,103.85612,1.368902
HEALTHWAY MEDICAL CLINIC,BLK 534 CHOA CHU KANG ST 51 LIMBANG SHOPPING CENTRE #01-37 Singapore 680534,103.742507,1.392074
HEALTHWAY SCREENING @ CENTREPOINT,176 ORCHARD ROAD THE CENTREPOINT #06-02/03/04 Singapore 238843,103.839829,1.301949
HEALTHWAY SCREENING @ DOWNTOWN,6A SHENTON WAY Downtown Gallery #03-11/12/13 Singapore 068815,103.8481298,1.2764991
HEALTHWERKZ MEDICAL CENTRE,BLK 355 sembawang way #01-02 Singapore 750355,103.818602,1.449646
HEALTHWERKZ MEDICAL CENTRE (CCK),BLK 225 CHOA CHU KANG CENTRAL #01-199 Singapore 680225,103.744864,1.380992
HEALTHWERKZ MEDICAL CENTRE @ ORCHARD,9 SCOTTS ROAD PACIFIC PLAZA #11-02 Singapore 228210,103.831788,1.306595
HEALTHWERKZ MEDICAL CENTRE @ SEMB MRT,11 CANBERRA ROAD SEMBAWANG MRT #01-09 Singapore 759775,103.819791,1.449009
HEALTHWISE MEDICAL CLINIC & SURGERY,BLK 41 JALAN TIGA #01-07 Singapore 390041,103.8846499,1.307978
HEARTLAND FAMILY CLINIC,BLK 333C YISHUN STREET 31 #01-167 Singapore 763333,103.845616,1.431751
HEARTLANDHEALTH,BLK 730 TAMPINES STREET 71 TAMPINES COURTVIEW #01-51 Singapore 520730,103.933482,1.356734
HEARTLANDHEALTH,BLK 114 JURONG EAST STREET 13 JURONG EAST VILLE #01-406 Singapore 600114,103.734525,1.339154
HEARTLANDHEALTH,BLK 66 LORONG 4 TOA PAYOH TOA PAYOH VISTA #01-315 Singapore 310066,103.85174,1.335012
HEARTLANDHEALTH,BLK 86 REDHILL CLOSE #01-600 Singapore 150086,103.8187,1.286943
HEARTLANDHEALTH,BLK 164 BUKIT BATOK STREET 11 #01-152 Singapore 650164,103.742555,1.347764
HEARTLANDHEALTH,BLK 88 CIRCUIT ROAD MACPHERSON OASIS #01-965 Singapore 370088,103.88585,1.323564
HEARTLANDHEALTH,BLK 463 JURONG WEST STREET 41 #01-564 Singapore 640463,103.723121,1.350593
HEARTLANDHEALTH,BLK 18 BEDOK SOUTH ROAD #01-69 Singapore 460018,103.934572,1.320332
HEARTLANDHEALTH,BLK 19 LORONG 7 TOA PAYOH KIM KEAT PALM #01-272 Singapore 310019,103.856473,1.335312
HEARTLANDHEALTH,BLK 59 NEW UPPER CHANGI ROAD #01-1268 Singapore 461059,103.940685,1.324047
HEARTLANDHEALTH,BLK 87 WHAMPOA DRIVE #01-869 Singapore 320087,103.855666,1.323282
HELIX AESTHETICS AND MEDICAL CLINIC,160 ROBINSON ROAD SINGAPORE BUSINESS FEDERATION CENTER #03-04 Singapore 068914,103.8475787,1.278112
HILL SPRING MEDICAL,12 JALAN LEBAN SEMBAWANG HILLS ESTATE Singapore 577552,103.829143,1.371664
HISEMAINN MEDICAL CLINIC (BUKIT BATOK),BLK 289E BUKIT BATOK ST 25 #01-160 Singapore 654289,103.759165,1.3442639
HISEMAINN MEDICAL CLINIC (JURONG WEST),BLK 276 JURONG WEST ST 25 #01-06 Singapore 640276,103.703748,1.3536300000000001
HK FAMILY CLINIC & SURGERY PTE LTD,BLK 410 ANG MO KIO AVE 10 #01-817 Singapore 560410,103.8544919,1.36282
HL CLINIC PTE LTD,BLK 9 TELOK BLANGAH CRESCENT #01-135 Singapore 090009,103.819248,1.277407
HL DERMAHEALTH AESTHETIC CLINIC PTE LTD,BLK 12 TELOK BLANGAH CRESCENT #01-111 Singapore 090012,103.819525,1.27719
HL FAMILY CLINIC & SURGERY PTE LTD,BLK 111 JALAN BUKIT MERAH #01-1704 Singapore 160111,103.8263599,1.2799179
HL FAMILY CLINIC & SURGERY(BEDOK) PTE LTD,BLK 89 BEDOK NORTH STREET 4 #01-83 Singapore 460089,103.938284,1.333055
HO MEDICAL CENTRE PTE LTD,BLK 352 CLEMENTI AVENUE 2 #01-115 Singapore 120352,103.77153,1.314595
HO MEDICAL CLINIC,101 UPPER CROSS ST PEOPLE'S PARK CTR #03-09 Singapore 058357,103.8436608,1.2856991
HO TONG CLINIC,BLK 35 CIRCUIT RD #01-448 Singapore 370035,103.886,1.329166
HOME TEAM ACADEMY MEDICAL CENTRE,501 OLD CHOA CHU KANG ROAD #01-00 Singapore 698928,103.720855,1.371947
HONG ASSOCIATES CLINIC,111 JLN BUKIT MERAH #01-1682 Singapore 160111,103.8263599,1.2799179
HONG FAMILY CLINIC,282 TAMPINES ST 22 #01-300 Singapore 520282,103.952356,1.347726
HONG WHYE CLINIC,BLK 412 BEDOK NORTH AVE 2 #01-144 Singapore 460412,103.930712,1.330059
HONG'S CLINIC PEOPLE'S PARK CENTRE,101 UPPER CROSS STREET PEOPLE'S PARK CENTRE #B1-37 Singapore 058357,103.8436608,1.2856991
HOPE FAMILY CLINIC AND SURGERY,883 WOODLANDS ST 82 WOODLANDS NORTH PLAZA #02-466A Singapore 730883,103.790708,1.442756
HORIZON MEDICAL CENTRE,200 Upper Thomson Road Thomson Imperial Court #01-11 Singapore 574424,103.835801,1.352012
HOUGANG CENTRAL MEDICAL CLINIC,804 HOUGANG CENTRAL #01-124 Singapore 530804,103.894571,1.370936
HOUGANG CLINIC,BLK 631 HOUGANG AVE 8 #01-16 Singapore 530631,103.881449,1.370693
HOUGANG FAMILY MEDICINE CLINIC,51 HOUGANG AVENUE 9 #02-01 Singapore 538776,103.8827177,1.3750478
HQ SCDF MEDICAL CENTRE,91 UBI AVENUE 4 HQ SINGAPORE CIVIL DEFENCE FORCE #01-00 Singapore 408827,103.89376,1.334208
HT LASER CLINIC,14 SCOTTS ROAD FAR EAST PLAZA #05-13 Singapore 228213,103.833358,1.307249
HUA MEI CLINIC,298 TIONG BAHRU ROAD CENTRAL PLAZA #15-01 TO 06 Singapore 168730,103.827378,1.28613
"HUA MEI CLINIC, WHAMPOA",300 WHAMPOA DRIVE WHAMPOA COMMUNITY CLUB #02-06 Singapore 327737,103.856984,1.324623
HUAN CLINIC,BLK 51 CHIN SWEE ROAD #03-111 Singapore 160051,103.841927,1.287465
HUANG SURGERY PRIVATE LIMITED,491B RIVER VALLEY ROAD VALLEY POINT OFFICE TOWER #03-03A Singapore 248373,103.8270639,1.293086
HUI CLINIC + SURGERY,BLK 157 ANG MO KIO AVE 4 #01-566 Singapore 560157,103.839382,1.37526
HWANG & LIANG FAMILY CLINIC & SURGERY,BLK 476 TAMPINES ST 44 #01-173 Singapore 520476,103.953814,1.361002
HYPERBARIC MEDICAL SERVICES PTE LTD,10 SINARAN DRIVE NOVENA MEDICAL CENTER #10-02 Singapore 307506,103.844476,1.321061
I-HEALTH MEDICAL CLINIC,BLK 30 BENDEMEER ROAD BENDEMEER VILLE #01-883 Singapore 330030,103.863927,1.319344
I.MEDICAL & I.AESTHETICS,1 NORTHPOINT DRIVE NORTHPOINT CITY #B1-176 Singapore 768019,103.8365628,1.4285262
ICA DIVISION CLINIC,10 KALLANG ROAD ICA BUILDING Singapore 208718,103.862452,1.306686
ICARE MEDICAL AND WELLNESS CLINIC,BLK 22 HAVELOCK ROAD #01-701 Singapore 160022,103.828705,1.288768
ICON HEALTH SCREENING,10 SINARAN DRIVE NOVENA MEDICAL CENTER #09-04 Singapore 307506,103.844476,1.321061
ICON MEDICAL AESTHETICS CLINIC,435 ORCHARD ROAD WISMA ATRIA #02-01E Singapore 238877,103.833056,1.30351
ICON MEDICAL CLINIC,BLK 517 JURONG WEST ST 52 #01-101 Singapore 640517,103.719694,1.345807
IDOC CLINIC,21 HOUGANG STREET 51 HOUGANG GREEN SHOPPING MALL #01-43 Singapore 538719,103.888221,1.379502
IDOC CLINIC (HONG KAH) PTE LTD,BLK 502 JURONG WEST AVENUE 1 #01-813 Singapore 640502,103.718008,1.350353
IDS CLINIC,360 ORCHARD ROAD INTERNATIONAL BUILDING #02-02 Singapore 238869,103.830876,1.306348
IDS CLINIC,8 SINARAN DRIVE NOVENA SPECIALIST CENTER #05-09 to 10 Singapore 307470,103.845191,1.320287
IHP MEDICAL CLINIC @ APB,459 JALAN AHMAD IBRAHIM Singapore 639934,103.647081,1.3361749
IHP MEDICAL CLINIC @ GSK,23 ROCHESTER PARK Singapore 139234,103.786962,1.307249
IHP MEDICAL CLINIC @ GSK TUAS,10 TUAS SOUTH AVENUE 8 #01-065 Singapore 637421,103.629492,1.296133
IHP MEDICAL CLINIC @ HP,1150 DEPOT ROAD #05-00 Singapore 109673,103.807381,1.282747
IHP MEDICAL CLINIC @ SKYWORKS,3 BEDOK SOUTH ROAD Singapore 469269,103.929179,1.320688
ILLUMIA MEDICAL,501 ORCHARD ROAD WHEELOCK PLACE #05-12 Singapore 238880,103.830326,1.304598
IM MEDICAL CLINIC,1 TRAS LINK ORCHID HOTEL #02-12 Singapore 078867,103.843891,1.276993
INLIVEN MEDICAL,10 SINARAN DRIVE NOVENA MEDICAL CENTER #08-14 Singapore 307506,103.844476,1.321061
INSYNC MEDICAL,66 EAST COAST ROAD THE FLOW #07-01 Singapore 428778,103.903808,1.30511
INTEGRATED WELLNESS CLINIC,8 SINARAN DRIVE NOVENA SPECIALIST CENTER #05-04 Singapore 307470,103.845191,1.320287
INTEMEDICAL (KOVAN),BLK 210 HOUGANG STREET 21 #01-233 Singapore 530210,103.886963,1.35929
INTEMEDICAL 24 HOUR CLINIC,BLK 525 ANG MO KIO AVENUE 10 CHENG SAN CENTRE #01-2407 Singapore 560525,103.854009,1.372623
INTERNATIONAL MEDICAL CLINIC,293 HOLLAND RD COLD STORAGE JELITA #02-03/04 Singapore 278628,103.785876,1.317728
INTERNATIONAL MEDICAL CLINIC,1 ORCHARD BOULEVARD CAMDEN MEDICAL CENTRE #14-01/02/03/04/05/06/07 Singapore 248649,103.82371500000001,1.303152
INTERNATIONAL MEDICAL CLINIC,88 East Coast Road Katong Square #02-07 Singapore 423371,103.9046894,1.3047255
IPCARE CLINIC,5 LORONG NAPIRI BRIGHT VISION HOSPITAL (LEVEL 2) Singapore 547530,103.8778339,1.371523
ISLAND FAMILY CLINIC (ANCHORVALE),338 ANCHORVALE CRESCENT #01-02 Singapore 540338,103.8896595,1.399153
ISLAND FAMILY CLINIC (BEDOK),BLK 763 BEDOK RESERVOIR VIEW #01-283 Singapore 470763,103.93466600000001,1.3361
ISLAND FAMILY CLINIC (BUKIT BATOK),BLK 447 BUKIT BATOK WEST AVENUE 9 #01-05 Singapore 650447,103.7398486,1.3527196
ISLAND FAMILY CLINIC (FERNVALE),BLK 473A FERNVALE STREET #01-03 Singapore 791473,103.8805131,1.3966499000000001
ISLAND FAMILY CLINIC (KEAT HONG),BLK 803 KEAT HONG CLOSE #01-04 Singapore 680803,103.742853,1.374189
ISLAND FAMILY CLINIC (SENGKANG),BLK 279 SENGKANG EAST AVENUE #01-05 Singapore 540279,103.8932377,1.3864314
ISLAND GROUP CLINIC,100 ORCHARD RD CONCORDE HOTEL & SHOPPING MALL #04-104 Singapore 238840,103.842224,1.300618
ISLAND GROUP CLINIC,19 TANGLIN ROAD TANGLIN SHOPPING CENTRE #06-34 TO 37 Singapore 247909,103.827018,1.306364
ISLAND GROUP CLINIC,BLK 25 NEW UPPER CHANGI RD #01-646 Singapore 462025,103.9334499,1.323454
ISLAND MEDICAL CLINIC,55 Newton Road Revenue House #02-07 Singapore 307987,103.842258,1.319597
IYAC AESTHETIC CLINIC,ONE ORCHARD BOULEVARD CAMDEN MEDICAL CENTRE #06-02/03 Singapore 248649,103.82371500000001,1.303152
J LASER AND AESTHETICS CLINIC,101 IRRAWADDY ROAD ROYAL SQUARE @ NOVENA #19-08/09 Singapore 329565,103.842999,1.3202997
J T MEDICAL CENTRE,BLK 844 TAMPINES ST 82 #01-135 Singapore 520844,103.936474,1.352108
JADE MEDICAL CLINIC PTE LTD,8 EU TONG SEN STREET THE CENTRAL OFFICE TOWER 1 #13-99 Singapore 059818,103.846784,1.288529
JAMIYAH MEDICAL CLINIC,"BLK 31 LORONG 12, GEYLANG, LEVEL 4 JAMIYAH SINGAPORE Singapore 399006",103.87854,1.310387
JANE & LEE SEMBAWANG FAMILY CLINIC,BLK 483 Admiralty Link #01-23 Singapore 750483,103.815519,1.455885
JAPAN CLINIC AND SURGERY,BLK 802 FRENCH RD #01-55 Singapore 200802,103.860105,1.307345
JAS MEDICAL SCREENING CENTRE PTE LTD,67 LOR 27 GEYLANG Singapore 388189,103.883891,1.316171
JINMIN CLINIC,430 CHANGI RD Singapore 419872,103.912273,1.319044
JIREH FAMILY CLINIC,BLK 883 WOODLANDS ST 82 #02-468A Singapore 730883,103.790708,1.442756
JIREH MEDICAL CLINIC,BLK 70 Toa Payoh Lorong 4 #01-335 Singapore 310070,103.852258,1.334824
JJ CLINIC & SURGERY,BLK 107 ANG MO KIO AVENUE 4 #01-150 Singapore 560107,103.837222,1.3714519
JL AESTHETIC & MEDICAL CLINIC,435 ORCHARD ROAD WISMA ATRIA #17-04/05 Singapore 238877,103.833056,1.30351
JO-LIN FAMILY CLINIC & SURGERY,BLK 533 CHOA CHU KANG ST 51 LIMBANG SHOPPING CENTRE #01-29 Singapore 680533,103.743131,1.392015
JOASH FAMILY CLINIC & SURGERY,BLK 1030 UPPER SERANGOON ROAD Singapore 534767,103.888502,1.363024
JOHN CHIAM MEDICAL CLINIC,BLK 21 GHIM MOH ROAD #01-145 Singapore 270021,103.789243,1.310653
JOY CLINIC AND SURGERY,BLK 844 YISHUN ST 81 #01-164 Singapore 760844,103.835288,1.415635
JOY FAMILY CLINIC,BLK 703 BEDOK RESERVOIR ROAD #01-3506 Singapore 470703,103.919774,1.337138
JOYHEALTH MEDICAL CLINIC & SURGERY,825 Tampines Street 81 #01-50 Singapore 520825,103.932742,1.349394
JUBILEE FAMILY PHYSICIANS,BLK 258 PASIR RIS ST 21 #02-16 Singapore 510258,103.964726,1.367095
JURONG DAY & NIGHT CLINIC,BLK 966 JURONG WEST STREET 93 #01-219 Singapore 640966,103.692912,1.341728
JURONG EAST CLINIC,BLK 114 JURONG EAST ST 13 #01-406 Singapore 600114,103.734525,1.339154
JURONG POLYCLINIC,190 JURONG EAST AVENUE 1 Singapore 609788,103.730619,1.349792
JURPOINT MEDICARE CLINIC,1 JURONG WEST CENTRAL 2 JURONG POINT SHOPPING CENTRE #B1A-20B Singapore 648886,103.706464,1.339874
JW CORPORATION CLINIC PTE LTD,BLK 507 Jurong West Street 52 #01-156 Singapore 640507,103.718414,1.348987
K C TAN'S CLINIC & BRIGHT DENTAL SURGERY,1016 UPPER SERANGOON RD Singapore 534754,103.88821,1.362783
K K TAN MEDICAL CLINIC,BLK 284 BISHAN ST 22 #01-209 Singapore 570284,103.843716,1.359077
K L TAY CLINIC & SURGERY,632 BEDOK RESERVOIR RD #01-822 Singapore 470632,103.91397,1.332034
K N CHIN & ASSOCIATES PTE LTD,24 RAFFLES PLACE CLIFFORD CENTRE #02-18 Singapore 048621,103.852123,1.283847
K N CHIN & ASSOCIATES PTE LTD MEDICAL PRACTICE,3 TEMASEK BOULEVARD SUNTEC CITY MALL #02-400 Singapore 038983,103.858967,1.295968
K N LAU CLINIC,6 KENSINGTON PARK RD Singapore 557258,103.866113,1.364697
K P TAN MEDICAL CLINIC,BLK 811 HOUGANG CENTRAL #01-192 Singapore 530811,103.893725,1.371823
K W CHAN MEDICAL CLINIC & SURGERY,2 FIRST STREET SIGLAP V #01-10 Singapore 458278,103.923488,1.313111
K. B. TAN CLINIC & LASER SURGERY,BLK 625 ELIAS RD Elias Mall #01-310 Singapore 510625,103.94193,1.378441
K2 MEDICAL CLINIC,BLK 248 SIMEI STREET 3 MULTI STOREY CAR PARK #01-128 Singapore 520248,103.953308,1.344085
KAI CLINIC,223 EAST COAST ROAD kiv Singapore 428920,103.907151,1.307487
KAI MEDICAL CLINIC,5 Tampines Street 32 Tampines Mart #02-05 Singapore 529284,103.9602589,1.354349
KALLANG BAHRU FAMILY CLINIC PTE. LTD.,BLK 66 KALLANG BAHRU #01-485 Singapore 330066,103.869493,1.320065
KANG AN CLINIC PTE LTD,BLK 644 BT BATOK CENTRAL #01-70 Singapore 650644,103.751665,1.348711
KANG CLINIC,BLK 532 ANG MO KIO AVENUE 10 CHENG SAN CENTRE #01-2465 Singapore 560532,103.854658,1.3737839
KAO & TAN FAMILY MEDICAL CENTRE & SURGERY PTE LTD,BLK 18 JALAN MEMBINA TIONG BAHRU COURT #02-03 Singapore 164018,103.826718,1.28568
KARRI FAMILY CLINIC,BLK 866A TAMPINES ST 83 TAMPINES CENTRAL COMMUNITY COMPLEX #03-05 Singapore 521866,103.934462,1.355507
KARUNYA COMMUNITY CLINIC,BLK 668 CHANDER ROAD #01-16 Singapore 210668,103.851086,1.307745
KATONG FAMILY CLINIC PTE LTD,263 TANJONG KATONG ROAD SUITES@ KATONG #01-03 Singapore 437050,103.895392,1.30782
KCS MEDICAL CENTRE PTE LTD,BLK 515 Bedok North Ave 2 #01-205 Singapore 460515,103.929827,1.332008
KCS MEDICAL GROUP,BLK 718 Bedok Reservoir Road #01-4594 Singapore 470718,103.925831,1.336733
KEAT HONG FAMILY MEDICINE CLINIC,2 CHOA CHU KANG LOOP KEAT HONG COMMUNITY CLUB #03-02 Singapore 689687,103.7450121,1.3843015
KEE CLINIC,BLK 36 HOLLAND DRIVE BUONA VISTA COMMUNITY CLUB #01-10 Singapore 270036,103.792805,1.30946
KELINIK MAJU,BLK 414 Eunos Road 5 #01-60 Singapore 400414,103.898241,1.318286
KENNETH LOO FAMILY CLINIC,152 Bishan St 11 #01-215 Singapore 570152,103.854692,1.345631
KENNETH TAN MEDICAL CLINIC,BLK 658 PUNGGOL EAST #01-07 Singapore 820658,103.9188218,1.4006575000000001
KENSINGTON FAMILY CLINIC,14D KENSINGTON PARK ROAD SERANGOON GARDEN ESTATE Singapore 557265,103.866158,1.365112
KEPPEL MEDICAL GROUP,BLK 9 TELOK BLANGAH CRESCENT #01-139 Singapore 090009,103.819248,1.277407
KEPPEL SHIPYARD MEDICAL CENTRE,BLK 51 PIONEER SECTOR 1 Singapore 628437,103.655761,1.300548
KEPPEL SHIPYARD MEDICAL CENTRE (BENOI),15 BENOI ROAD Singapore 629888,103.6778439,1.29814
KEPPEL SHIPYARD MEDICAL CENTRE (GUL),55 GUL RD Singapore 629353,103.672441,1.295814
KHO CLINIC,BLK 537 BEDOK NORTH ST 3 #01-519 Singapore 460537,103.9242529,1.331769
KHOO CLINIC & SURGERY,998 UPPER SERANGOON RD Singapore 534737,103.887738,1.362352
KHOO FAMILY CLINIC & SURGERY,BLK 2 BEACH ROAD #01-4781 Singapore 190002,103.864834,1.30386
KHOR CLINIC & SURGERY,BLK 424 BT BATOK WEST AVE 2 #01-237 Singapore 650424,103.74553,1.361923
KI MEDICAL CLINIC,BLK 416 ANG MO KIO AVENUE 10 #01-975 Singapore 560416,103.854932,1.3645799
KILLINEY MEDICAL CLINIC,61 KILLINEY ROAD Singapore 239522,103.839562,1.298951
KIM TIAN CLINIC,BLK 71 SENG POH ROAD #01-41 Singapore 160071,103.832429,1.284259
KIN MUN CLINIC,BLK 66 LORONG 4 TOA PAYOH ##01-311/313 Singapore 310066,103.85174,1.335012
KING GEORGE'S MEDICAL CLINIC PTE LTD,803 KING GEORGE'S AVE #01-144 Singapore 200803,103.8608749,1.307798
KINGS MEDICAL CLINIC,59A SERANGOON GARDEN WAY Singapore 555955,103.865675,1.3637729
KIRIN CLINIC & SURGERY,BLK 5 EUNOS CRESCENT #01-2601 Singapore 400005,103.903556,1.32128
KL NG MEDICAL CLINIC PTE LTD,BLK 1 JALAN BUKIT MERAH #01-4530 Singapore 150001,103.8081,1.28649
KLINIK BURHANI,BLK 136 BEDOK NORTH AVE 3 #01-150 Singapore 460136,103.935139,1.328263
KNIGHTSBRIDGE CLINIC,277B SOUTH BRIDGE ROAD Singapore 058826,103.845235,1.281778
KO FAMILY CLINIC,BLK 18 UPPER BOON KENG ROAD #01-1133 Singapore 380018,103.871939,1.314735
KOH CLINIC & SURGERY,BLK 166 BUKIT BATOK WEST AVENUE 8 #01-250 Singapore 650166,103.742713,1.347075
KOH CLINIC & SURGERY PTE LTD,801 TAMPINES AVE 4 #01-269 Singapore 520801,103.937957,1.34703
KOH'S T & T CLINIC AND SURGERY PTE. LTD.,BLK 237 SERANGOON AVE 3 #01-126 Singapore 550237,103.870085,1.354141
KONG KIAN CLINIC,187 UPPER PAYA LEBAR ROAD Singapore 534869,103.885049,1.340096
KOVAN CLINIC,BLK 210 HOUGANG ST 21 #01-271 Singapore 530210,103.886963,1.35929
KOWAYO AESTHETIC CLINIC,1 RAFFLES LINK #01-03B Singapore 039393,103.85588,1.292009
L & H POLYCLINIC AND SURGERY,BLK 59 LENGKOK BAHRU #01-543 Singapore 150059,103.814348,1.288783
L & L FAMILY MEDICINE CLINIC,6 SIN MING ROAD SIN MING PLAZA TOWER 2 #01-07 Singapore 575585,103.836423,1.352852
L'VING VINE MEDICAL & WELLNESS CLINIC,154 WEST COAST ROAD WEST COAST PLAZA #01-84/85 Singapore 127371,103.76629200000001,1.303843
LAI MEDICAL CLINIC PTE LTD,BLK 213 BT BATOK ST 21 #01-209 Singapore 650213,103.752431,1.346886
LAKESIDE FAMILY MEDICINE CLINIC,518A JURONG WEST STREET 52 #01-02 Singapore 641518,103.7189549,1.345284
LAN MEDICAL CLINIC & SURGERY,308 CLEMENTI AVE 4 #01-345 Singapore 120308,103.76687,1.321165
LAVENDER MEDICAL CLINIC & SURGERY PTE LTD,BLK 803 KING GEORGE'S AVENUE #01-186 Singapore 200803,103.8608749,1.307798
LC CLINIC AESTHETICS,BLK 449 CLEMENTI AVENUE 3 (2ND FLOOR) #01-219 Singapore 120449,103.764914,1.313385
LC CLINIC MEDICAL SURGERY AESTHETICS,BLK 446 CLEMENTI AVENUE 3 #01-191 Singapore 120446,103.764777,1.312444
LE PRIVATE CLINIC -MEDICAL AND LASER AESTHETICS-,9 SCOTTS ROAD #08-04 Singapore 228210,103.831788,1.306595
LEE & KOH FAMILY CLINIC,BLK 359 BUKIT BATOK ST 31 #01-389 Singapore 650359,103.751156,1.36126
LEE & TAN FAMILY CLINIC AND SURGERY,BLK 72 CIRCUIT RD #01-03 Singapore 370072,103.887928,1.32456
LEE CLINIC,BLK 467C JOO CHIAT ROAD Singapore 427678,103.90459,1.306541
LEE CLINIC,BLK 123 BEDOK NORTH ST 2 #01-156 Singapore 460123,103.937359,1.329592
LEE CLINIC & SURGERY,BLK 333 KRETA AYER ROAD #01-20 Singapore 080333,103.842723,1.2803199
LEE CLINIC AND SURGERY,BLK 505 ANG MO KIO AVE 8 #01-2684 Singapore 560505,103.849951,1.374855
LEE DISPENSARY,36 CHAI CHEE AVE #01-159 Singapore 461036,103.925329,1.325447
LEE FAMILY CLINIC PTE. LTD.,BLK 762 JURONG WEST STREET 75 GEK POH SHOPPING CENTRE #02-262 Singapore 640762,103.698195,1.349156
LEONG CLINIC,63B LENGKOK BAHRU #01-366 Singapore 152063,103.815171,1.289137
LER CLINIC & SURGERY,BLK 835 TAMPINES ST 83 #01-10 Singapore 520835,103.933929,1.35116
LIAN CLINIC,BLK 18 Marsiling Lane #01-269 Singapore 730018,103.777685,1.443049
LIANG CLINIC,55 SIGLAP ROAD SIGLAP CENTRE #B1-15/16 Singapore 455871,103.92325,1.312606
LIEW CLINIC,BLK 5000G MARINE PARADE ROAD LAGUNA PARK #01-31 Singapore 449290,103.932002,1.310052
LIEW CLINIC & SURGERY,BLK 116 BT MERAH VIEW #01-223 Singapore 151116,103.82146,1.2851459
LIFE CARE CLINIC,BLK 259 BUKIT PANJANG RING ROAD #01-12 Singapore 671259,103.77279,1.377432
LIFE FAMILY CLINIC,BLK 713 ANG MO KIO AVE 6 #01-4052 Singapore 560713,103.846517,1.371464
LIFE FAMILY CLINIC,10 CHOA CHU KANG AVENUE 4 CHOA CHU KANG MRT STATION #01-28/29 Singapore 689810,103.744252,1.385659
LIFE MEDAESTHETIC CLINIC,6 EU TONG SEN STREET THE CENTRAL #05-10 Singapore 059817,103.846694,1.288424
LIFE SPRING MEDICAL CLINIC,825 TAMPINES STREET 81 #01-56 Singapore 520825,103.932742,1.349394
LIFE-LINK CLINIC & SURGERY,BLK 446 PASIR RIS DR 6 #01-120 Singapore 510446,103.957523,1.3703669
LIFECARE FAMILY CLINIC,BLK 524A JELAPANG ROAD GREENRIDGE SHOPPING CENTRE #02-15 Singapore 671524,103.766361,1.384839
LIFECARE FAMILY CLINIC & SURGERY,BLK 102 YISHUN AVE 5 #01-133 Singapore 760102,103.8288369,1.430859
LIFECARE FAMILY CLINIC & SURGERY,BLK 106 HOUGANG AVE 1 #01-1221 Singapore 530106,103.890572,1.353777
LIFECARE MEDICAL CENTRE,36 CIRCUIT ROAD #01-416 Singapore 370036,103.886929,1.328989
LIFELINE BISHAN MEDICAL CLINIC,BLK 501 BISHAN ST 11 #01-376 Singapore 570501,103.849097,1.348388
LIFELINE BUKIT PANJANG MEDICAL CLINIC,BLK 103 GANGSA ROAD #01-37 Singapore 670103,103.768434,1.378629
LIFELINE MEDICAL CENTRE,BLK 710 CLEMENTI WEST ST 2 #01-261 Singapore 120710,103.761484,1.306298
LIFELINE MEDICAL GROUP,BLK 118 RIVERVALE DRIVE RIVERVALE PLAZA #02-18 Singapore 540118,103.901579,1.385427
LIFELINE NEIGHBOURHOOD MEDICAL CLINIC,BLK 280 BUKIT BATOK EAST AVE 3 #01-333 Singapore 650280,103.757137,1.347743
LIFELINE PUNGGOL MEDICAL CLINIC PTE LTD,BLK 198 PUNGGOL FIELD #02-03 Singapore 820198,103.90634,1.39946
LIFELINE YISHUN RING MEDICAL CLINIC,BLK 846 YISHUN RING ROAD #01-3615 Singapore 760846,103.834277,1.416772
LIFELINK SN CLINIC & SURGERY,BLK 153 Serangoon North Avenue 1 #01-534 Singapore 550153,103.872411,1.369972
LIFESCAN MEDICAL CENTRE,290 ORCHARD ROAD PARAGON #07-18 to 20 Singapore 238859,103.836184,1.30451
LIFESCAN MEDICAL CENTRE,10 SINARAN DRIVE NOVENA MEDICAL CENTER #08-02/04 Singapore 307506,103.844476,1.321061
LILY AW PASIR RIS FAMILY CLINIC & SURGERY,BLK 446 PASIR RIS DR 6 #01-116 Singapore 510446,103.957523,1.3703669
LILY NEO CLINIC PTE LTD,101 IRRAWADDY ROAD ROYAL SQUARE MEDICAL SUITES @ NOVENA #21-09 Singapore 329565,103.842999,1.3202997
LIM CLINIC,BLK 446 ANG MO KIO AVE10 #01-1663 Singapore 560446,103.8552799,1.367823
LIM CLINIC,295 CHANGI ROAD Singapore 419773,103.907292,1.31809
LIM CLINIC & SURGERY,BLK 20 CHAI CHEE ROAD #01-418/420 Singapore 461020,103.922814,1.32635
LIM CLINIC & SURGERY,BLK 109 TOA PAYOH LOR 1 #01-312 Singapore 310109,103.846346,1.341253
LIM COUNTRY CLINIC,BLK 208 HOUGANG ST 21 #01-207 Singapore 530208,103.886685,1.358844
LIM MEDICAL CLINIC,BLK 320 CLEMENTI AVE 4 #01-29 Singapore 120320,103.765547,1.31748
LIN & SONS CLINIC & SURGERY PTE LTD,18 TECK WHYE LANE #01-97 Singapore 680018,103.754037,1.378346
LINC AESTHETIC CLINIC PTE LTD,541 ORCHARD ROAD LIAT TOWERS #21-01/02 Singapore 238881,103.830378,1.3052919
LITTLE CROSS FAMILY CLINIC PTE LTD,BLK 929 Tampines St 91 #01-445 Singapore 520929,103.939481,1.346349
LIVEWELL MEDICAL FAMILY CLINIC,20 AH HOOD ROAD ZHONGSHAN MALL #01-08 Singapore 329984,103.8464431,1.3270618
LKCMEDICINE HEALTH SCREENING CENTRE,"11 MANDALAY ROAD Clinical Sciences Building, LKCMedicine #18-01 Singapore 308232",103.8490277,1.3215515
LLOYD LEAS MEDICAL CLINIC,1 COSFORD ROAD Lloyd Leas Community Supervision Centre Singapore 499549,103.980316,1.365015
LLOYDS MEDICAL GROUP,435 ORCHARD ROAD WISMA ATRIA #19-04 Singapore 238877,103.833056,1.30351
LO & LEE CLINIC & SURGERY,BLK 134 LORONG AH SOO #01-462 Singapore 530134,103.886433,1.350452
LOH CLINIC,BLK 45 SIMS DR #01-166 Singapore 380045,103.87832,1.317386
LOI+WONG CLINIC & SURGERY,492 JURONG WEST ST 41 #01-08 Singapore 640492,103.724268,1.350203
LONDON (MH) CLINIC & SURGERY,BLK 104 HOUGANG AVE 1 #01-1123 Singapore 530104,103.890305,1.354793
LOOI SURGERY PTE LTD,102 TOWNER ROAD #01-254 Singapore 322102,103.861876,1.320645
LOTUS MEDICAL CLINIC,155 UPPER PAYA LEBAR ROAD Singapore 534853,103.885717,1.33942
LOW & LEE CLINIC & SURGERY,BLK 55 CHAI CHEE DR #01-202 Singapore 460055,103.919335,1.3265769
LOW MEDICAL CLINIC,BLK 67 KALLANG BAHRU #01-447 Singapore 330067,103.869493,1.320065
LS AESTHETIC CLINIC PTD,435 ORCHARD ROAD WISMA ATRIA #10-04 Singapore 238877,103.833056,1.30351
LUA CLINIC & SURGERY,BLK 350 UBI AVE 1 #01-941 Singapore 400350,103.9018789,1.325864
LUM CLINIC & SURGERY,BLK 109 BUKIT PURMEI RD #01-149 Singapore 090109,103.825288,1.273916
LUSH MEDICAL CLINIC,176 ORCHARD ROAD THE CENTREPOINT #03-31 Singapore 238843,103.839829,1.301949
LUSH MEDICAL CLINIC (HBF),1 MARITIME SQUARE HARBOURFRONT CENTRE #02-65 Singapore 099253,103.819304,1.264553
LUSUMU FAMILY CLINIC,BLK 530 Bedok North St 3 #01-638 Singapore 460530,103.926882,1.333838
LUX MEDICAL AESTHETIC CLINIC,2 HANDY ROAD THE CATHAY #02-09 Singapore 229233,103.847398,1.2993889
M AESTHETIC CLINIC,10 SINARAN DRIVE SQUARE 2 #11-07/08 Singapore 307506,103.844476,1.321061
M LAM CLINIC,739 GEYLANG ROAD Singapore 389649,103.8904249,1.314802
M MEDICAL CLINIC,BLK 681 RACE COURSE ROAD #01-309 Singapore 210681,103.855302,1.313998
MACPHERSON MEDICAL CLINIC,BLK 78 CIRCUIT ROAD #01-488 Singapore 370078,103.885268,1.327882
MAKE-WELL FAMILY CLINIC & SURGERY,BLK 70 LORONG 4 TOA PAYOH #01-351 Singapore 310070,103.852258,1.334824
MANDARIN MEDICAL CENTRE,66 JLN JURONG KECHIL JK BUILDING Singapore 598586,103.773689,1.340323
MANHATTAN MEDICAL CENTRE,151 CHIN SWEE ROAD MANHATTAN HOUSE #01-10/11/12 Singapore 169876,103.84065,1.287186
MAO MEDICAL CENTRE & SURGERY PTE LTD,BLK 149 SILAT AVENUE #01-54 Singapore 160149,103.831752,1.277358
MARINA MEDICAL CENTRE (TIONG BAHRU),BLK 78 GUAN CHUAN ST #01-39 Singapore 160078,103.830487,1.282842
MARINE PARADE CLINIC,BLK 59 MARINE TERRACE #01-81 Singapore 440059,103.914506,1.30588
MARINE TERRACE FAMILY CLINIC,BLK 57 MARINE TERRACE #01-129 Singapore 440057,103.9154159,1.306489
MARITIME MEDICAL CENTRE,120 CANTONMENT ROAD MARITIME HOUSE #02-02/04 TO 05 Singapore 089760,103.840361,1.276612
MARSILING CLINIC & SURGERY,BLK 131 MARSILING RISE #01-186 Singapore 730131,103.778403,1.438494
MARTIN MEDICAL CENTRE,BLK 111 WOODLANDS ST 13 #01-80 Singapore 730111,103.78198,1.437911
MARY MEDICAL CLINIC AND SURGERY,BLK 252 JURONG EAST STREET 24 #01-157 Singapore 600252,103.738456,1.343415
MAURICE CHEW CLINIC & SURGERY,144 UPPER BUKIT TIMAH RD BEAUTY WORLD CENTRE #03-05 Singapore 588177,103.776131,1.34234
MAY MEDICAL CLINIC & SURGERY PTE LTD,BLK 41 HOLLAND DRIVE #01-19 Singapore 270041,103.793427,1.307571
MAYFAIR MEDICAL CLINIC,BLK 182 WOODLANDS STREET 13 #01-04 Singapore 730182,103.777202,1.4352064
MAYFAIR MEDICAL CLINIC (YISHUN CHONG PANG),BLK 103 YISHUN RING ROAD #01-73 Singapore 760103,103.828487,1.431578
MBS MHC HEALTHCARE CENTRE,10 BAYFRONT AVENUE BASEMENT 2 MARINA BAY SANDS Singapore 018956,103.858322,1.282275
MC SURGICAL & LASER CLINIC,11 KEE SENG STREET ONZE @ TANJONG PAGAR #01-02 Singapore 089218,103.842224,1.2747949
MC SURGICAL & LASER CLINIC,BLK 1 TANJONG PAGAR PLAZA #02-13 Singapore 082001,103.842833,1.27573
MCR CLINIC PTE LTD,BLK 633 VEERASAMY ROAD #01-118 Singapore 200633,103.8548519,1.305783
MCR CLINIC PTE LTD,BLK 633 VEERASAMY ROAD #01-130 Singapore 200633,103.8548519,1.305783
MD INTERNATIONAL MEDICAL CENTRE,9 TAMAN SERASI BOTANIC GARDENS VIEW #01-11 Singapore 257720,103.81927,1.308387
ME CLINIC (SEOUL),21 MOSQUE STREET #02-01 Singapore 059501,103.84466,1.283692
MEDEN CLINIC & SURGERY,BLK 59 LENGKOK BAHRU #01-553 Singapore 150059,103.814348,1.288783
MEDEN CLINIC & SURGERY,BLK 35 TELOK BLANGAH RISE #01-295 Singapore 090035,103.8218739,1.2729839
MEDI CLINIC,BLK 2 JALAN KUKOH #01-149 Singapore 163002,103.8395819,1.288639
MEDI HEALTHCARE CLINIC (PUNGGOL),BLK 218 SUMANG WALK #01-02 Singapore 820218,103.8956448,1.4028181
MEDIC SURGICAL & LASER CLINIC,BLK 1 TANJONG PAGAR PLAZA #01-28 Singapore 082001,103.842833,1.27573
MEDICA CLINIC,BLK 681 HOUGANG AVE 8 #01-837 Singapore 530681,103.886822,1.373235
MEDICAL AESTHETICS,BLK 681 HOUGANG AVE 8 #01-831 Singapore 530681,103.886822,1.373235
MEDICAL AESTHETICS,450 CLEMENTI AVENUE 3 #01-291 Singapore 120450,103.765368,1.313578
MEDICAL AND DENTAL CENTRE @ COMMONWEALTH,BLK 88 TANGLIN HALT ROAD MULTI STOREY CAR PARK #01-03 Singapore 141088,103.797717,1.302208
MEDICAL ASSOCIATES CENTRE,8 SINARAN DRIVE Novena Specialist Center #04-06 Singapore 307470,103.845191,1.320287
MEDICAL CENTRE ( STMICROELECTRONICS PTE LTD-TOA PAYOH),629 LORONG 4 TOA PAYOH Singapore 319521,103.852213,1.332595
MEDICAL CENTRE (STMICROELECTRONICS PTE LTD-J9),28 ANG MO KIO INDUSTRIAL PARK 2 Singapore 569508,103.865508,1.3754
MEDICAL CENTRE KEPPEL FELS LTD,50 GUL ROAD Singapore 629351,103.668578,1.292822
MEDICAL COSDERM CLINIC,23 SERANGOON CENTRAL NEX #04-50/51 Singapore 556083,103.871806,1.350644
MEDICAL ORAL & MAXILLOFACIAL SURGERY DENTAL SPECIALIST CENTRE,6 NAPIER ROAD GLENEAGLES MEDICAL CENTRE #07-03 Singapore 258499,103.819726,1.307048
MEDICAL UNION CLINIC,BLK 211 SERANGOON AVE 4 #01-04 Singapore 550211,103.873213,1.35642
MEDICAL UNION CLINIC,BLK 416 PANDAN GARDENS #01-128 Singapore 600416,103.748254,1.321093
MEDICARE ASSOCIATES,BLK 482 TAMPINES AVE 9 ST 43 #01-236 Singapore 520482,103.952521,1.361307
MEDICARE ASSOCIATES CLINIC & SURGERY,BLK 107 SERANGOON NORTH AVE 1 #01-679 Singapore 550107,103.870069,1.36991
MEDICO CLINIC & SURGERY,BLK 249 JURONG EAST STREET 24 #01-88 Singapore 600249,103.739203,1.342524
MEDICUS CLINIC & SURGERY,BLK 451 JURONG WEST ST 42 #01-186 Singapore 640451,103.718207,1.3518269
MEDIFAST MEDICAL CENTRE,"10 SINARAN DRIVE NOVENA MEDICAL CENTER, SQUARE 2 #11-27/28/29 Singapore 307506",103.844476,1.321061
MEDIHEALTH BISHAN CLINIC & SURGERY,BLK 121 BISHAN ST 12 #01-95 Singapore 570121,103.851076,1.347181
MEDILIFE CLINIC & SURGERY,BLK 474 TAMPINES ST 43 #01-122 Singapore 520474,103.952705,1.3598190000000001
MEDILINE WEI MIN CLINIC,14 KENSINGTON PARK ROAD Singapore 557265,103.866158,1.365112
MEDILINE WEI MIN CLINIC,BLK 81 MARINE PARADE CENTRAL #01-634 Singapore 440081,103.907111,1.30286
MEDINA MEDICAL CENTRE,BLK 479 TAMPINES STREET 44 #01-231 Singapore 520479,103.95368,1.361342
MEDIPLUS CLINIC & SURGERY,BLK 305 UBI AVE 1 #01-177 Singapore 400305,103.902291,1.3294379
MEDIPOINT MEDICAL CENTRE (PONGGOL BRANCH),BLK 401 HOUGANG AVE 10 #01-1170 Singapore 530401,103.89676300000001,1.374806
MEDIPOINT MEDICAL CENTRE (WOODLANDS BRANCH),BLK 548 WOODLANDS DR 44 VISTA POINT #02-24 Singapore 730548,103.79392,1.430554
MEDIVALE MEDICAL CLINIC,236 YISHUN RING ROAD YISHUN HEARTS #01-1012 Singapore 760236,103.839015,1.434065
MEDIVENE CLINIC & SURGERY,BLK 330 ANCHORVALE STREET #01-05 Singapore 540330,103.8891611,1.3968471
MEDIVIEW CLINIC AND SURGERY,BLK 150 Toa Payoh Lorong 1 #01-999 Singapore 310150,103.844393,1.3339589
MEDIWAY MEDICAL CENTRE,1 SOPHIA ROAD PEACE CENTRE #04-21 Singapore 228149,103.849561,1.301511
MEDLIFE CLINIC & SURGERY,BLK 684 HOUGANG AVENUE 8 #01-985 Singapore 530684,103.886822,1.373235
MEDORA CLINIC & SURGERY,BLK 115 UPPER PAYA LEBAR ROAD Singapore 534833,103.886656,1.338277
MEENARA CLINIC,BLK 422 ANG MO KIO AVE 3 #01-2536 Singapore 560422,103.851481,1.367993
MEI LING CLINIC,BLK 158 MEI LING ST #01-80 Singapore 140158,103.802744,1.292684
MEI LING CLINIC (TOA PAYOH),BLK 500 LOR 6 TOA PAYOH BIZ ONE HDB HUB #04-33 Singapore 310500,103.847064,1.333005
MEL & PARTNERS DRS PTE LTD,1 SCOTTS ROAD SHAW CENTRE #17-12 Singapore 228208,103.8319286,1.3061399
MENDIS AESTHETICS & SURGERY,333A ORCHARD ROAD MANDARIN GALLERY #04-17 Singapore 238897,103.836501,1.302138
MERIDIAN MEDICAL AND DENTAL CENTRE,BLK 327 HOUGANG AVE 5 #01-162 Singapore 530327,103.8961549,1.368256
MERIDIAN MEDICAL CENTRE,108 Depot Road Depot Heights Shopping Centre #01-10 Singapore 100108,103.8103409,1.2812349
METTA MEDICAL CENTRE PTE LTD,3 MOUNT ELIZABETH MOUNT ELIZABETH MEDICAL CENTRE #11-15 Singapore 228510,103.835553,1.3045739
MHC FAMILY CLINIC (ANG MO KIO),BLK 452 ANG MO KIO AVE 10 #01-1789 Singapore 560452,103.85612,1.368902
MHC MEDICAL CENTRE (AMARA),100 TRAS STREET 100 AM #15-01/02/03 Singapore 079027,103.843549,1.274929
MHC MEDICAL CENTRE (NOVENA),10 SINARAN DRIVE NOVENA MEDICAL CENTER #09-10 Singapore 307506,103.844476,1.321061
"MICRON SEMICONDUCTOR ASIA PTE. LTD (FAB 10W, MEDICAL CLINIC)",1 WOODLANDS IND PARK D STREET 1 Singapore 738799,103.7675639,1.432165
MILFORD MEDICAL GROUP,BLK 237 SERANGOON AVE 3 #01-116 Singapore 550237,103.870085,1.354141
MILLENNIUM MEDICAL GROUP,BLK 849 WOODLANDS ST 82 #01-215 Singapore 730849,103.7919019,1.441262
MILLENNIUM MEDICAL GROUP,BLK 533 CHOA CHU KANG ST 51 #01-33 Singapore 680533,103.743131,1.392015
MINDS DEVELOPMENTAL DISABILITIES MEDICAL CLINIC,"11 JALAN UBI, BLK 3 KEMBANGAN-CHAI CHEE COMMUNITY HUB #01-21 Singapore 409074",103.899168,1.3170790000000001
MINMED CLINIC (HAIG ROAD),30 HAIG RD Singapore 438737,103.895793,1.313243
MINMED CLINIC (JURONG EAST),50 JURONG GATEWAY ROAD JEM #04-17 Singapore 608549,103.7436599,1.3330671
MINMED CLINIC (PASIR RIS),1 PASIR RIS CENTRAL STREET 3 WHITE SANDS #05-08/09 Singapore 518457,103.950162,1.372567
MINMED CLINIC (PUNGGOL),83 PUNGGOL CENTRAL WATERWAY POINT #02-15 Singapore 828761,103.9021738,1.40669
MINMED CLINIC (SENGKANG),1 SENGKANG SQUARE COMPASS ONE #04-13 Singapore 545078,103.894775,1.392272
MINMED CLINIC (YISHUN),1 NORTHPOINT DRIVE NORTHPOINT CITY #02-153 Singapore 768019,103.8365628,1.4285262
MINMED HEALTH SCREENERS,290 Orchard Road Paragon #16-04/09/10 Singapore 238859,103.836184,1.30451
MINT MEDICAL CENTRE,1 HARBOURFRONT PLACE HARBOURFRONT TOWER ONE #01-10 Singapore 098633,103.818927,1.265267
MINT MEDICAL CENTRE (FUNAN),107 NORTH BRIDGE ROAD FUNAN #04-13A Singapore 179105,103.8500832,1.291321
MISSION (BUKIT BATOK) MEDICAL CLINIC,BLK 395A Bukit Batok West Ave 5 #03-02 Singapore 651395,103.751851,1.363934
MISSION (HOUGANG) MEDICAL CLINIC,BLK 356 HOUGANG AVE 7 #01-799 Singapore 530356,103.898837,1.372568
MISSION CROSS FAMILY CLINIC,348 YISHUN AVENUE 11 #01-03 Singapore 760348,103.8429384,1.4266148
MISSION MEDICAL CLINIC,780 UPPER SERANGOON ROAD #01-01 Singapore 534649,103.879052,1.354519
MIZU AESTHETIC CLINIC,8A MARINA BOULEVARD MARINA BAY LINK MALL #B2-12 Singapore 018984,103.853551,1.280475
MMT AESTHETICS CLINIC,101 IRRAWADDY ROAD ROYAL SQUARE AT NOVENA #16-01 Singapore 329565,103.842999,1.3202997
MOBILEDOCTOR CLINIC,20 CROSS STREET CHINA SQUARE CENTRAL (CHINA COURT) #02-11/12 Singapore 048422,103.847478,1.283745
MOUNT ALVERNIA OUTREACH MEDICAL CLINIC,20 LENGKOK BAHRU #01-03 Singapore 159053,103.8147884,1.2872392
MOUNT ALVERNIA OUTREACH MEDICAL CLINIC,7A LORONG 8 TOA PAYOH AGAPE VILLAGE #02-07 Singapore 319264,103.8570262,1.3400854
MOYEM MEDICAL AESTHETICS,1 KIM SENG PROMENADE GREAT WORLD CITY #03-119 Singapore 237994,103.832088,1.293984
MUHAMMADIYAH HEALTH AND DAY CARE CENTRE,BLK 10 EUNOS CRESCENT #01-2711 Singapore 400010,103.902571,1.322234
MURATA ELECTRONICS (S) PTE LTD.,1 TUAS ROAD Singapore 638481,103.6644309,1.32093
MURATA ELECTRONICS SINGAPORE (PTE) LTD ( MEDICAL CLINIC ),200 YISHUN AVENUE 7 Singapore 768927,103.833416,1.438692
MUTUAL HEALTHCARE MEDICAL CLINIC,319B ANCHORVALE DR #01-92 Singapore 542319,103.890317,1.3915979
MUTUAL HEALTHCARE MEDICAL CLINIC,106A PUNGGOL FIELD #01-546 Singapore 821106,103.908576,1.396765
MUTUAL HEALTHCARE MEDICAL CLINIC,BLK 205A Compassvale Lane #01-53 Singapore 541205,103.897503,1.385536
MY CLINIC,9 KING ALBERT PARK KAP #01-50 Singapore 598332,103.8677444,1.3553794
MY DOCTOR @ LAKESIDE,BLK 201 BOON LAY WAY LAKESIDE MRT STATION #01-05 Singapore 649845,103.720999,1.344394
MY DOCTOR'S PLACE PTE LTD,BLK 218 BEDOK NORTH STREET 1 #01-41 Singapore 460218,103.933686,1.3274919
MY FAMILY CLINIC (ANCHORVALE),BLK 326A ANCHORVALE ROAD #01-260 Singapore 541326,103.8881034,1.3948099
MY FAMILY CLINIC (ANGSANA BREEZE @ YISHUN),BLK 507 YISHUN AVENUE 4 #01-05 Singapore 760507,103.8396956,1.4155504
MY FAMILY CLINIC (CHOA CHU KANG),BLK 475 CHOA CHU KANG AVE 3 SUNSHINE PLACE #02-01 Singapore 680475,103.73862,1.377746
MY FAMILY CLINIC (CLEMENTI 325) PTE LTD,BLK 325 CLEMENTI AVE 5 #01-139 Singapore 120325,103.766757,1.315245
MY FAMILY CLINIC (CLEMENTI),BLK 420A CLEMENTI AVENUE 1 CASA CLEMENTI #01-05 Singapore 121420,103.768627,1.309752
MY FAMILY CLINIC (HOUGANG CENTRAL),BLK 804 HOUGANG CENTRAL #01-118 Singapore 530804,103.894571,1.370936
MY FAMILY CLINIC (PIONEER),638 Jurong West St 61 Pioneer Mall #02-09 Singapore 640638,103.696988,1.34152
MY FAMILY CLINIC (PUNGGOL CENTRAL),BLK 301 PUNGGOL CENTRAL #01-02 Singapore 820301,103.905807,1.403302
MY FAMILY CLINIC (RIVERVALE),11 Rivervale Crescent Rivervale Mall #02-11A Singapore 545082,103.904984,1.392002
MY FAMILY CLINIC (SEGAR),BLK 485 SEGAR ROAD #01-508 Singapore 670485,103.771129,1.3887737
MY FAMILY CLINIC (SENJA),BLK 628 Senja Road #01-04 Singapore 670628,103.760105,1.385118
MY FAMILY CLINIC (ST GEORGE),2 ST. GEORGE'S ROAD Singapore 328023,103.8606719,1.3234919
MY FAMILY CLINIC (TANGLIN HALT),BLK 46-2 COMMONWEALTH DRIVE #01-372 Singapore 140462,103.798193,1.300024
MY FAMILY CLINIC (WOODLANDS GLEN),BLK 573 WOODLANDS DRIVE 16 #01-09 Singapore 730573,103.7985269,1.4310171
MY FAMILY CLINIC (WOODLANDS),BLK 768 WOODLANDS AVE 6 WOODLANDS MART #02-07 Singapore 730768,103.798159,1.445962
MY FAMILY CLINIC™ (TOA PAYOH CENTRAL),BLK 79D TOA PAYOH CENTRAL #01-53 Singapore 314079,103.84956,1.334377
MY HEALTH PARTNERS MEDICAL CLINIC,25D Lorong Liput Singapore 277735,103.794904,1.310358
MY MEDICAL AESTHETICS,108 MIDDLE ROAD BERNHARD SCHULTE HOUSE #03-03 & 04 Singapore 188967,103.853878,1.298729
MYAT SAYDANAR MEDICAL CENTER,111 NORTH BRIDGE ROAD PENINSULA PLAZA #03-22 Singapore 179098,103.850442,1.292307
MYDOCTOR@ADMIRALTY PTE LTD,BLK 693 WOODLANDS AVENUE 6 #01-03 Singapore 730693,103.8037955,1.4379932
MYHEALTH MEDICAL CENTRE,BLK 501 WEST COAST DRIVE #01-256 Singapore 120501,103.758457,1.311289
